"id","date","latitude","longitude","location","description","sources","associations"
"CIV0001","02/24/2022","49.85005","36.659031","Chuhuiv, south of Kharkiv","Apartment block hit. Crater is very large, possibly cruise or ballistic missile as part of attack on nearby airport. Appear to have been multiple civilian casualties, AA Agency reporting 1 x fatality 12 x wounded.","https://twitter.com/Michael1Sheldon/status/1496717647089651716,https://twitter.com/JimmySecUK/status/1496754882002534400?t=7h6tgRHHOKOLY9EYhMdQvg&s=19,https://twitter.com/PDocumentarians/status/1496731018723835907?s=20&t=BsO19JRy9tJkk8gDatQVUg,https://twitter.com/AlexanderLouri4/status/1496761690561683456?s=20&t=BsO19JRy9tJkk8gDatQVUg,https://twitter.com/AlexanderLouri4/status/1496762766316687363?s=20&t=BsO19JRy9tJkk8gDatQVUg,https://twitter.com/AlexanderLouri4/status/1496765032167710723?s=20&t=BsO19JRy9tJkk8gDatQVUg,https://twitter.com/AlexanderLouri4/status/1496783483745755141?s=20&t=teqfp5yPtAKLW8Ri7PMI5g,https://twitter.com/anadoluagency/status/1496768205314007040?s=20&t=Au5uUu8TJjhHwjyynyG4ww,https://twitter.com/AFP/status/1496778152387178508,https://twitter.com/Michael1Sheldon/status/1496717647089651716?s=20&t=O7dC2VF4_5Ad5-fyA9Oqcg,https://twitter.com/666_mancer/status/1496868095842865154?s=20&t=vjuzVkVF9AjHtNtCWTtq9Q,https://twitter.com/AFP/status/1496768532448788482","Type of area affected=Residential,Weapon System=Unknown"
"CIV0002","02/24/2022","48.748564","30.218515","Uman","Civilians hit by what appears to have been artillery, possibly a rocket. Appears to have been at least one fatality, possibly a child.","https://twitter.com/ragipsoylu/status/1496737243255480321?s=20&t=teqfp5yPtAKLW8Ri7PMI5g,https://twitter.com/realistqx1/status/1496757503195029508?s=20&t=Au5uUu8TJjhHwjyynyG4ww,https://twitter.com/Liveuamap/status/1496739229040537603?s=20&t=teqfp5yPtAKLW8Ri7PMI5g","Type of area affected=Commercial,Weapon System=Air strike"
"CIV0003","02/24/2022","50.470055","30.527381","Kyiv","Explosion in central Kyiv, nothing further yet.","https://twitter.com/FannyFacsar/status/1496787968203231232?s=20&t=Au5uUu8TJjhHwjyynyG4ww,https://twitter.com/TreyYingst/status/1496793744590389249?s=20&t=Au5uUu8TJjhHwjyynyG4ww,https://twitter.com/AuroraIntel/status/1496791736504528897?s=20&t=Au5uUu8TJjhHwjyynyG4ww,https://twitter.com/olgatokariuk/status/1496794328806612993?s=20&t=Au5uUu8TJjhHwjyynyG4ww","Type of area affected=Undefined,Weapon System=Unknown"
"CIV0004","02/24/2022","47.775537","37.239601","Vuhledar","Explosion in central Kyiv, nothing further yet.","https://twitter.com/IBN_MOHAMMAD/status/1496778855863963650?s=20&t=Au5uUu8TJjhHwjyynyG4ww,https://twitter.com/N_Waters89/status/1496856695896969222?s=20&t=vjuzVkVF9AjHtNtCWTtq9Q,https://twitter.com/amnestypress/status/1496872501447700481,https://twitter.com/TiranaHassan/status/1497348792038924290?s=20&t=gy1DPWfjpK8P3DeXkOB93g","Type of area affected=Healthcare,Weapon System=Cluster munitions"
"CIV0007","02/24/2022","46.22789","34.64283","Semihatka/Henichesk","[Graphic: Image shows a dead child wrapped in a blanket] Child killed by explosion.","https://twitter.com/GayanaYuksel/status/1496831609902968840,https://t.me/Pravda_Gerashchenko/190","Type of area affected=Undefined,Weapon System=Unknown"
"CIV0008","02/24/2022","47.116736","37.684468","Mariupol","civilian homes hit by artillery.","https://twitter.com/IntelCrab/status/1496840102651256832?s=20&t=vjuzVkVF9AjHtNtCWTtq9Q,https://t.me/mariupolrada/8465","Type of area affected=Residential,Weapon System=Unknown"
"CIV0009","02/24/2022","47.120812","37.680896","Mariupol (микрорайон Восточный)","A civilian casualty from an explosion.","https://t.me/mariupol/3007,https://t.me/mariupol/3081","Type of area affected=Residential,Weapon System=Unknown"
"CIV0010","02/24/2022","48.050732","37.777318","Donetsk city","Artillery fire on what appears to be an urban area.","https://twitter.com/Caucasuswar/status/1496846910912610309?s=20&t=vjuzVkVF9AjHtNtCWTtq9Q","Type of area affected=Healthcare,Weapon System=Unknown"
"CIV0011","02/24/2022","50.308065","34.880457","Akhtyrka, Sumy Oblast","Civilian buildings damaged and destroyed by shelling.","https://t.me/nexta_live/16696","Type of area affected=Commercial,Weapon System=Unknown"
"CIV0013","02/24/2022","48.054917","37.777822","Kievsky district of Donetsk","Apparent strike on hospital in separatist held area.","https://twitter.com/City_Donetsk/status/1496877801689038859?s=20&t=o76iN01FC_pqK6l4rX_fFQ","Type of area affected=Healthcare,Weapon System=Unknown"
"CIV0098","02/24/2022","49.211889","38.905691","Polovynkyne","Individual injured by shelling, ambulance responds.","https://www.facebook.com/story.php?story_fbid=317408247086919&id=100064532388988","Type of area affected=Residential,Weapon System=Unknown"
"CIV0015","02/25/2022","50.405126","30.644991","Pozniaky, Kyiv","Apartment building on fire; three people reported injured","https://twitter.com/ChristopherJM/status/1497048113504301090?s=20&t=F0--qN8xA_f7DUIGDOmN4w,https://twitter.com/HannaLiubakova/status/1497057602794049537?s=20&t=OVvhaH-5fg2hPLYK8iF8Lw,https://t.me/nexta_live/17090,https://twitter.com/terrelljstarr/status/1497134872992833551?s=21,https://twitter.com/jimmysecuk/status/1497130333556334595?s=21,https://twitter.com/ItsBorys/status/1497182733071753230","Type of area affected=Residential,Weapon System=Unknown"
"CIV0017","02/25/2022","50.517921","30.489868","Obolon, Kyiv","Military vehicle runs over a civilian vehicle; at least one civilian inside appears to have survived. Unclear which country the military vehicle belongs to.","HIDDEN","Type of area affected=Undefined,Weapon System=Vehicle mounted weapon"
"CIV0018","02/25/2022","49.987116","36.261098","Kharkiv","Rocket motor lodged in a street at zebra crossing.","https://t.me/vorposte/13720,https://t.me/nexta_live/17149,https://t.me/vorposte/13720","Type of area affected=Residential,Weapon System=Cluster munitions"
"CIV0019","02/25/2022","49.990482","36.267443","Kharkiv","Another weapon remnant (also possibly from a BM-30 rocket) in another area of Kharkiv","https://t.me/vorposte/13723","Type of area affected=Residential,Weapon System=Cluster munitions"
"CIV0021","02/25/2022","50.546217","30.20572","Bucha, Kyiv vicinity","Rocket motor embedded in pavement in residential area.","https://twitter.com/UAWeapons/status/1497176385420464133,https://www.facebook.com/pantera.kira/posts/1957953117745193,https://twitter.com/3TrAmvL026aJRar/status/1497161918586499109","Type of area affected=Residential,Weapon System=Cruise missile"
"CIV0022","02/25/2022","50.447934","30.476193","Kyiv","Smoke rising from a residential building on Victory Avenue; accompanying text suggests smoke is the result of firefight in the area.","https://t.me/nexta_live/17178","Type of area affected=Residential,Weapon System=Small arms"
"CIV0023","02/25/2022","50.046871","36.354415","Unknown","Russian or Ukrainian speaking men in a vehicle come under fire as they approach a roadblock.","https://t.me/Caucasian_bureau/31685","Type of area affected=Undefined,Weapon System=Small arms"
"CIV0024","02/25/2022","50.309014","34.869037","Okhtyrka, Sumy Oblast","[Graphic: Image shows at least one dead person lying by a pool of blood] Kindergarten hit by cluster munition.","https://twitter.com/3TrAmvL026aJRar/status/1497195337089490945?t=tQNd4lD7kqscdr9rDf2ybg&s=19,https://twitter.com/MitchvdKlundert/status/1497201512547860483,https://twitter.com/KyivIndependent/status/1497184726595125250,https://twitter.com/no_itsmyturn/status/1497184730395074562","Type of area affected=School or childcare,Weapon System=Cluster munitions"
"CIV0026","02/25/2022","50.485573","30.472797","Kyiv","[Graphic: Video shows three dead, bloodied people laying on the street] At least three civilians killed while driving in a vehicle on Krillovskaya Street, Kyiv. Civilians were allegedly mistaken for Russian infiltrators.","HIDDEN","Type of area affected=Undefined,Weapon System=Unknown"
"CIV0027","02/25/2022","50.043216","36.355272","Kharkiv","Residential building showing signs of explosive damage.","https://t.me/nexta_live/17220","Type of area affected=Residential,Weapon System=Unknown"
"CIV0028","02/25/2022","46.638598","32.610175","Kherson","Video of burned-out building. Accompanying text indicates it was the central market.","https://t.me/nexta_live/17239,https://twitter.com/poppoppopkt/status/1497140485013467137","Type of area affected=Commercial,Weapon System=Unknown"
"CIV0029","02/25/2022","46.608638","32.844773","Kherson","Civilian vehicle comes under fire while driving down a highway.","HIDDEN","Type of area affected=Undefined,Weapon System=Small arms"
"CIV0031","02/25/2022","50.016231","36.278018","Kharkiv","Artillery (Multiple Launch Rocket System) strike on a residential area.","HIDDEN","Type of area affected=Residential,Weapon System=HE rocket artillery"
"CIV0032","02/25/2022","46.83952","35.370967","Melitopol, Zaporizhzhia Oblast","Hospital and adjacent building come under small arms fire.","https://twitter.com/nexta_tv/status/1497240135615791107","Type of area affected=Healthcare,Weapon System=Small arms"
"CIV0033","02/25/2022","50.553812","30.274272","Bucha, Kyiv vicinity","[Graphic: Video shows bloodied man receiving medical care] At least one civilian injured as vehicles come under small arms fire.","HIDDEN","Type of area affected=Commercial,Weapon System=Small arms"
"CIV0034","02/25/2022","50.514734","30.227499","Irpen, Kyiv vicinity","Residential building and civilian vehicles damaged by missile/artillery strike.","HIDDEN","Type of area affected=Residential,Weapon System=Unknown"
"CIV0035","02/25/2022","50.003401","36.256498","Kharkiv, Trufanova street","Residential building damaged by rocket motor.","https://twitter.com/bbcrussian/status/1497264217317154816,https://twitter.com/bbcrussian/status/1497264217317154816","Type of area affected=Residential,Weapon System=Cluster munitions"
"CIV0036","02/25/2022","50.04807","36.188935","Oleksiyivka area of Kharkiv","Multiple Launch Rocket System barrage in the middle of an intersection in a residential/business area.","https://twitter.com/Archer83Able/status/1497266803214532609,https://twitter.com/Archer83Able/status/1497266803214532609","Type of area affected=Commercial,Weapon System=HE rocket artillery"
"CIV0038","02/25/2022","47.639862","37.548633","Buhas","[Graphic: Video shows charred human remains] At least one person killed by explosion, allegedly from artillery strike.","https://twitter.com/Shrik_E/status/1497275830094942209?s=20&t=BhgLyIwl7YttliBZTDA7LQ","Type of area affected=Commercial,Weapon System=Unknown"
"CIV0040","02/25/2022","50.101774","36.280238","Kharkiv","Zoo damaged by explosions.","https://t.me/hueviykharkov/46384","Type of area affected=Commercial,Weapon System=Unknown"
"CIV0094","02/25/2022","49.271101","38.90888","Starobilsk","Civilian areas shelled, many residential buildings destroyed.","https://www.facebook.com/100075881777013/posts/131589862713739/,https://www.facebook.com/groups/820419854981203/posts/1571696369853544/,https://www.facebook.com/watch/?v=923732664951321&extid=CL-UNK-UNK-UNK-AN_GK0T-GK1C&ref=sharing","Type of area affected=Undefined,Weapon System=Unknown"
"CIV0162","02/25/2022","48.335035","38.08337","Horlivka, Donetsk Oblast","Reportedly, one civilian was killed and 6 injured in an artillery strike in Gorlovka, DPR","https://t.me/nm_dnr/6395","Type of area affected=Residential,Weapon System=HE rocket artillery"
"CIV0163","02/25/2022","46.756995","33.369572","Nova Kakhovka, Kherson","Multiple Launch Rocket System firing.","https://twitter.com/GraniTweet/status/1497149587215298571","Type of area affected=Undefined,Weapon System=HE rocket artillery"
"CIV0378","02/25/2022","48.324982","38.137056","Gorlovka","[very graphic: badly wounded bodies] Two people killed in strike on school.","https://t.me/nm_dnr/6409,https://twitter.com/PLnewstoday/status/1497188820739104773/photo/3,https://www.youtube.com/watch?v=OIW-IacnviQ","Type of area affected=School or childcare,Weapon System=Unknown"
"CIV0460","02/25/2022","50.022011","36.330176","Saltivka, Kharkiv","Rocket motor impacted grove of trees next to children's playground.","https://twitter.com/2022Kharkiv/status/1498034291577610250?s=20&t=msDldxTbhAxlvqhSCA68ng","Type of area affected=Residential,Weapon System=Cluster munitions"
"CIV1466","02/25/2022","50.55395","30.274192","Hostomel","Civilian vehicles come under small arms fire.","https://t.me/suspilnenews/14513,https://t.me/uniannet/73863,https://t.me/minjustofficial/2663","Type of area affected=Undefined,Weapon System=Small arms"
"CIV1577","02/25/2022","50.554361","30.274851","Hostomel","Shooting of civilian cars near Hostomel.","HIDDEN","Type of area affected=Roads/Highways/Transport,Weapon System=Small arms"
"CIV0041","02/26/2022","50.42217","30.46481","Kyiv","Residential building hit by missile.","https://twitter.com/nexta_tv/status/1497459977350492171?t=uhQX4I33v87Edfo-hKJZBA&s=19,https://twitter.com/brenna__smith/status/1497464178528903171,https://twitter.com/BNONews/status/1497479518684073984,https://t.me/Pravda_Gerashchenko/392,https://t.me/nexta_live/17610,https://t.me/Pravda_Gerashchenko/404,https://twitter.com/christogrozev/status/1497459660357574660,https://t.me/hueviykharkov/46417","Type of area affected=Residential,Weapon System=Unknown"
"CIV0042","02/26/2022","51.524277","31.325445","Chernihiv","Apartment building on fire; three people reported injured.","https://t.me/nexta_live/17711,https://t.me/nexta_live/17717","Type of area affected=Residential,Weapon System=Unknown"
"CIV0043","02/26/2022","47.180475","37.697935","Sartana, Mariupol vicinity","[Graphic: Video shows a dead body lying on the road] Explosions damage residential neighbourhood and kill at least one person.","HIDDEN","Type of area affected=Residential,Weapon System=HE rocket artillery"
"CIV0045","02/26/2022","46.742547","32.716787","Kherson","Attack on marked civilian ambulance, claimed 2 civilian fatalities and one civilian injury.","HIDDEN","Type of area affected=Healthcare,Weapon System=Unknown"
"CIV0048","02/26/2022","50.65881","29.966006","Kyiv","Ukrainian State Emergency Service reports that a shell impacted the village of Borodyanka near Kyiv, killing at least three people.","https://twitter.com/michaelh992/status/1497561328092864515?t=-dPHO_fnyf-lbS0U_mNDzg,https://twitter.com/24UkraineNews/status/1497556546334699526?s=20&t=LWRuPZQx2D6yjJCx8E4jUw,https://twitter.com/TRTRussian/status/1497565167793618944?s=20&t=LWRuPZQx2D6yjJCx8E4jUw,https://twitter.com/hiko_cat_/status/1497559906467078144?s=20&t=LWRuPZQx2D6yjJCx8E4jUw","Type of area affected=Residential,Weapon System=Unknown"
"CIV0053","02/26/2022","50.450816","30.480674","Okhmadyt","Children's hospital hit by artillery.","https://twitter.com/YFloropoulos/status/1497691751858982912,https://twitter.com/rezarvhimi/status/1497679376795815946,https://twitter.com/olex_scherba/status/1497666436596043776?s=20&t=zERuHRAVwjV35XmB3oa2Ag","Type of area affected=Healthcare,Weapon System=HE rocket artillery"
"CIV0054","02/26/2022","50.026039","36.364213","Kharkiv","Residential building damaged by explosion.","https://t.me/nexta_live/17951","Type of area affected=Residential,Weapon System=Unknown"
"CIV0055","02/26/2022","49.590963","36.992584","","Bus came under fire, multiple civilian fatalities.","https://twitter.com/KyivIndependent/status/1497616576580780034?t=z-5NBKXokXf9vNgquGhaDQ&s=19,https://www.facebook.com/pavlokyrylenko.donoda/posts/pfbid02BLbExaL4hDU2hsqfXwrd2PEwRGY13LCQGjxYvGv5j81H6hSgim6q1KXjVJmoXacJl?__xts__[0]=68.ARB4kV93sTKgzlCYyDGSdWFOhIrMb6H_XNoiigE0MtIXTXKi25pj9rlIs4bhSlkT8UuusW1wmDCfOvL3-VatH80EqaFgJhLDuNJwvHlfBac-ItQ7N9crLE_t_-RKy8ESChPMH8codg0qSf6N8wmrd_or4b485J7IixxadhLgtrpLCg4hfz3OtHAZ5sSlutx9_-oLzZNF7E3d6a_7qG92RTqv_CtEtx3xxg08RWPigH3Lk08zNpSHcj-Qo0RVWTpjgz5i57kcK8JbHy9_m_PaVsms8REooo67WMWyPOqOsXbM-aU","Type of area affected=Undefined,Weapon System=Small arms"
"CIV0100","02/26/2022","48.914812","38.429436","Lysychansk","Residential buildings destroyed by shelling.","https://www.facebook.com/story.php?story_fbid=1388217971693967&id=102113453637765","Type of area affected=Residential,Weapon System=Unknown"
"CIV0109","02/26/2022","50.020018","36.346685","Kharkiv","Missile exploded on the sidewalk. Reportedly one pedestrian died.","HIDDEN","Type of area affected=Residential,Weapon System=Unknown"
"CIV0112","02/26/2022","50.540456","30.173602","Vorzel","Residential building hit by strike.","https://www.instagram.com/tv/Cab70RxFXMU/?utm_source=ig_web_copy_link","Type of area affected=Undefined,Weapon System=Unknown"
"CIV0174","02/26/2022","50.184244","36.119262","Bezruky, Kharkiv oblast","Abandoned armoured vehicles and a person's body","https://t.me/truexanewsua/24341,https://t.me/truexanewsua/27293","Type of area affected=Undefined,Weapon System=Small arms"
"CIV0192","02/26/2022","47.977043","37.698301","Kirov, Donetsk","Remnants of a missile at an oil depot","https://twitter.com/DNR_online_/status/1497495576618934272?s=20&t=gn_00P9gSmU2JkmsNup8Cg","Type of area affected=Industrial,Weapon System=Ballistic missile"
"CIV0380","02/26/2022","47.97635","37.697215","Kirov district, Donetsk","Tochka missile rocket motor landed immediately next to oil depot.","https://t.me/nm_dnr/6446,https://t.me/nm_dnr/6472,https://t.me/DNR_SCKK/6240","Type of area affected=Industrial,Weapon System=Ballistic missile"
"CIV0057","02/27/2022","48.942935","38.500602","Severodonetsk","Artillery firing from residential area.","https://twitter.com/SputnikATO/status/1497834319569633283,https://twitter.com/Kirilenko_a/status/1497501122906447873","Type of area affected=Undefined,Weapon System=Unknown"
"CIV0059","02/27/2022","50.481122","34.968007","Trostyanets', Sumy region","Soldiers wearing red bands on arms looting a supermarket.","https://twitter.com/RALee85/status/1497853526881546241","Type of area affected=Commercial,Weapon System=Unknown"
"CIV0060","02/27/2022","47.251619","34.332433","Verkhnii Rohachyk, Kherson region","Soldiers wearing Russian camouflage, with a white recognition band stealing a safe from a bank.","https://twitter.com/ASLuhn/status/1497888600146395136?t=DyIy8aDVfecvTvRQ4D1Nbw&s=19","Type of area affected=Commercial,Weapon System=Unknown"
"CIV0063","02/27/2022","50.009975","36.285385","Kharkiv","School on fire, unknown if any casualties.","https://t.me/truexanewsua/25194,https://twitter.com/nexta_tv/status/1497943838823960576","Type of area affected=School or childcare,Weapon System=Unknown"
"CIV0065","02/27/2022","51.490932","31.296623","Chernihiv","Shchorsa Cinema in urban area completely destroyed.","https://twitter.com/Nelson_Serg/status/1497971946235088899?s=20&t=ubdRC07mJZQTFLvJGWoGhA","Type of area affected=Commercial,Weapon System=Unknown"
"CIV0066","02/27/2022","51.490216","31.294106","Chernihiv","Residential area damaged by what may be ballistic missile. Large crater.","https://twitter.com/Nelson_Serg/status/1497923113593585672,https://twitter.com/Nelson_Serg/status/1497923113593585672","Type of area affected=Residential,Weapon System=Unknown"
"CIV0067","02/27/2022","46.963574","32.026989","Mykolaiv","Damage to residential buildings after shelling.","https://twitter.com/shaunwalker7/status/1497868180492017664,https://twitter.com/yashar_huseyn/status/1497844415150366725,https://t.me/uniannet/32894","Type of area affected=Residential,Weapon System=Unknown"
"CIV0078","02/27/2022","47.612571","37.487373","Volnovakha","ENT department of hospital hit by what appears to have been artillery.","https://twitter.com/whicard5/status/1497932713612959751?s=20&t=xONXT0up_fFJZ4Ur2NHXwA,https://twitter.com/momchil_ivanov1/status/1498238338859425792?s=20&t=zKf3Nb7bCgUn-dgAFPWdRg","Type of area affected=Healthcare,Weapon System=Unknown"
"CIV0080","02/27/2022","50.305984","34.879598","Okhtyrka","Widespread damage in what appears to be civilian area.","https://t.me/nexta_live/18459","Type of area affected=Military,Weapon System=Unknown"
"CIV0113","02/27/2022","50.189135","30.310636","Vasylkiv","Vasylkiv technical college heavily damaged by a rocket strike.","","Type of area affected=School or childcare,Weapon System=Unknown"
"CIV0114","02/27/2022","50.188812","30.311921","Vasylkiv","Vasylkiv Professional College of the National Aviation University (civil aviation) was heavily damaged, reportedly by a rocket strike.","","Type of area affected=School or childcare,Weapon System=Unknown"
"CIV0116","02/27/2022","51.314043","26.096582","Velykyi Zholuds'k","Private house and outbuildings damaged by a reconnaissance drone that was shot down.","https://t.me/c/1348181349/19454","Type of area affected=Residential,Weapon System=Unknown"
"CIV0124","02/27/2022","50.02589","36.36422","Kharkiv","Partially collapsed block of flats in Kharkiv, Saltovka district. At least one individual was reported to be killed.","https://t.me/truexanewsua/25182","Type of area affected=Residential,Weapon System=Unknown"
"CIV0164","02/27/2022","50.457029","30.592146","Kyiv","Assault on an individual in civilian clothing by armed men on Mykilska Slobidka in Kyiv","HIDDEN","Type of area affected=Residential,Weapon System=Unknown"
"CIV0381","02/27/2022","48.044411","37.777205","Kiev district, Donetsk","Residential area damaged by explosions.","https://t.me/nm_dnr/6480","Type of area affected=Residential,Weapon System=Unknown"
"CIV0382","02/27/2022","48.29455","37.988999","Horlivka ","Bus depot damaged, reportedly by artillery. Impact crater visible.","https://t.me/nm_dnr/6486","Type of area affected=Industrial,Weapon System=Unknown"
"CIV0448","02/27/2022","50.039775","36.361411","Kharkiv","Rocket motor impacted next to children's playground with Thomas the Tank engine frame.","https://twitter.com/2022Kharkiv/status/1498313925498130436?s=20&t=msDldxTbhAxlvqhSCA68ng","Type of area affected=Residential,Weapon System=Cluster munitions"
"CIV0450","02/27/2022","50.02505","36.343636","Saltivka, Kharkiv","Rocket motor impacted in dirt path.","https://twitter.com/2022Kharkiv/status/1497907864723247106?s=20&t=msDldxTbhAxlvqhSCA68ng","Type of area affected=Residential,Weapon System=Cluster munitions"
"CIV0073","02/28/2022","49.624973","36.63978","Blagodatnoye","Residential building damaged by explosion. Large crater.","https://t.me/nexta_live/18420","Type of area affected=Residential,Weapon System=Unknown"
"CIV0074","02/28/2022","49.178651","37.28665","Izyum","Damage to residential building.","https://t.me/nexta_live/18417","Type of area affected=Residential,Weapon System=Unknown"
"CIV0075","02/28/2022","50.003344","36.332028","Kharkiv","Cluster munition remnant embedded on residential street.","https://t.me/nexta_live/18441","Type of area affected=Residential,Weapon System=Cluster munitions"
"CIV0077","02/28/2022","50.029094","36.357679","Kharkiv","Multiple Launch Rocket System barrage on commercial area.","https://twitter.com/Osinttechnical/status/1498234139551715329?s=20&t=hPeTGdT6yh4vweQVyZdGVA,https://twitter.com/momchil_ivanov1/status/1498238338859425792?,https://twitter.com/Conflicts/status/1498236561816756224","Type of area affected=Commercial,Weapon System=HE rocket artillery"
"CIV0082","02/28/2022","50.017367","36.212218","Kharkiv","[Graphic: Video shows a conscious woman whose leg has been amputated by a falling missile remnant] Civilian suffers fatal injury as the result of a falling munition remnant.","HIDDEN","Type of area affected=Residential,Weapon System=Cluster munitions"
"CIV0083","02/28/2022","50.032544","36.236532","Kharkiv","[Graphic: Video shows at least two dead, bloodied bodies lying on the street] Explosions kill at least two people and damage civilian infrastructure.","https://t.me/voynareal/10903,https://t.me/voynareal/10908,https://www.washingtonpost.com/world/2022/02/28/kharkiv-rockets-shelling-russia-ukraine-war/","Type of area affected=Residential,Weapon System=Unknown"
"CIV0084","02/28/2022","49.927168","36.432766","Kharkiv","Residential apartment buildings and civilian vehicles damaged by explosions.","https://twitter.com/RALee85/status/1498244855759355905?s=20&t=zKf3Nb7bCgUn-dgAFPWdRg,https://twitter.com/karinanguyen_/status/1498248288205737990?s=20&t=zKf3Nb7bCgUn-dgAFPWdRg","Type of area affected=Residential,Weapon System=Unknown"
"CIV0086","02/28/2022","50.031543","36.23626","Kharkiv","Cluster munition strike on residential area in Kharkiv.","https://t.me/uniannet/33371,https://twitter.com/poppoppopkt/status/1498253254907789313,https://twitter.com/nntaleb/status/1498306870007762946,https://t.me/livekharkov/28039,https://mobile.twitter.com/RolandOliphant/status/1498269943271469063,https://mobile.twitter.com/christogrozev/status/1498262958287302658","Type of area affected=Residential,Weapon System=Cluster munitions"
"CIV0090","02/28/2022","50.034356","36.237958","Kharkiv","Smoke from Multiple Launch Rocket System strike, likely north side of Kharkiv.","HIDDEN","Type of area affected=Residential,Weapon System=Unknown"
"CIV0091","02/28/2022","50.032432","36.238577","Kharkiv","Rocket motor impacted inside civilian apartment.","","Type of area affected=Residential,Weapon System=Cluster munitions"
"CIV0093","02/28/2022","50.003296","36.330222","Kharkiv","Munition remnant embedded in pavement.","https://t.me/livekharkov/28020","Type of area affected=Residential,Weapon System=Cluster munitions"
"CIV0095","02/28/2022","50.020431","36.372477","Kharkiv","Damage to (allegedly) ""School No. 42"".","https://t.me/truexanewsua/26226","Type of area affected=School or childcare,Weapon System=Unknown"
"CIV0099","02/28/2022","48.957226","38.50357","Severodonetsk","Residential buildings destroyed by shelling.","https://www.facebook.com/magomedovandrei/posts/7086923728048526","Type of area affected=Residential,Weapon System=Unknown"
"CIV0101","02/28/2022","47.598023","37.496763","Volnovakha","Residential buildings burnt and destroyed.","https://twitter.com/Yevheniuss/status/1498308560580657152?fbclid=IwAR09eCY1kaEMQPdwuzo5vSK9x58qKsctlEISOGVj40oDbUC3WvKZK0k08hg,https://www.facebook.com/abdrakhmanova.a/videos/383456130277264/","Type of area affected=Commercial,Weapon System=Unknown"
"CIV0102","02/28/2022","50.430646","30.03766","Buzova","Maternity clinic damaged by explosions.","https://twitter.com/AsamiTerajima/status/1498533891619106816","Type of area affected=Healthcare,Weapon System=Unknown"
"CIV0108","02/28/2022","50.463479","29.795807","Kyiv","Elderly civilian man and woman killed in vehicle by what appears to be a BMP variant.","https://twitter.com/shcherbininainn/status/1498404775939002380?s=20&t=72-YqqvMgeW2MuyxCEe1yA,https://twitter.com/ArmedForcesUkr/status/1501162662369103872","Type of area affected=Residential,Weapon System=Vehicle mounted weapon"
"CIV0119","02/28/2022","50.026284","36.20691","Kharkiv","[Graphic: Video shows charred human remains inside a vehicle] At least one person killed in a vehicle fire, allegedly caused by an explosion.","https://t.me/Tsaplienko/1319","Type of area affected=Residential,Weapon System=Unknown"
"CIV0121","02/28/2022","50.929696","29.905967","Ivankiv,","Local History Museum in the village Ivankov being burned out.","https://t.me/ukraina_novosti/17365","Type of area affected=Undefined,Weapon System=Unknown"
"CIV0133","02/28/2022","47.110998","37.512722","Mariupol","[Graphic: Three images show a bloodied child receiving first aid. One image shows the corpse of the child] Child killed.","https://www.instagram.com/accounts/login/?next=/p/CafSvX8K944/,https://twitter.com/EMaloletka/status/1497988226711273476","Type of area affected=Undefined,Weapon System=Unknown"
"CIV0328","02/28/2022","51.525125","31.329635","Chernihiv","Large shopping center destroyed.","https://twitter.com/valentyn_bez/status/1498252248345985028?s=20&t=ZeHICquTiFYu2ZqyhE9uXA,https://twitter.com/wammezz/status/1502171810590191618?s=20&t=ZeHICquTiFYu2ZqyhE9uXA","Type of area affected=Commercial,Weapon System=Unknown"
"CIV0383","02/28/2022","48.038535","37.79508","Donetsk city","[graphic: body parts] Reports that one person was killed and two wounded in artillery strike.","https://t.me/nm_dnr/6528","Type of area affected=Residential,Weapon System=Unknown"
"CIV0463","02/28/2022","50.020272","36.216903","Novhorodska , Kharkiv","Cargo warhead impacted into road outside what may be a healthcare facility.","https://t.me/truexanewsua/26153","Type of area affected=Residential,Weapon System=Cluster munitions"
"CIV0464","02/28/2022","50.002135","36.328399","Saltivka, Kharkiv","Rocket motor impacted into earth.","","Type of area affected=Residential,Weapon System=Cluster munitions"
"CIV1654","02/28/2022","50.004483","36.331619","Kharkiv","Rocket motor for what appears to be a 9M55K embedded in path.","https://twitter.com/2022Kharkiv/status/1499115758382723076,https://t.me/vorposte/14405","Type of area affected=Residential,Weapon System=Cluster munitions"
"CIV1655","02/28/2022","50.011724","36.336368","Kharkiv","Cargo warhead embedded in earth next to block of flats.","https://twitter.com/den_hauzer/status/1498218894716243969?s=20&t=hRtj-iz_ibBoXa04UdeipQ","Type of area affected=Residential,Weapon System=Cluster munitions"
"CIV0103","03/01/2022","50.00382","36.23591","Kharkiv","Missile strike hits city administration, theater buildings.","https://twitter.com/christogrozev/status/1498559231141765120,https://twitter.com/BNONews/status/1498560544931987466,https://twitter.com/KevinRothrock/status/1498577232272441345?t=m2_hq0I_D8jWtbS_fCa9qQ&s=19,https://twitter.com/markmackinnon/status/1498629146615816197?s=20&t=l4pmXCdLhimD0FXCeAqsDA,https://www.facebook.com/photo/?fbid=323872019780694&set=pcb.323872166447346,https://www.facebook.com/100064736946785/videos/pcb.323872166447346/301724298728303,https://www.facebook.com/100064736946785/videos/pcb.323872166447346/3151539225101332,https://www.facebook.com/photo/?fbid=323872056447357&set=pcb.323872166447346,https://www.facebook.com/100064736946785/videos/pcb.323872166447346/694009415075055,https://www.facebook.com/100064736946785/videos/pcb.323872166447346/720735669307600,https://www.facebook.com/photo?fbid=323871956447367&set=pcb.323872166447346,https://www.facebook.com/photo?fbid=323871983114031&set=pcb.323872166447346,https://twitter.com/grimcultzero/status/1498549712869371906,https://twitter.com/maria_avdv/status/1498544825062375434,https://twitter.com/aldin_ww/status/1498605869755510786,https://twitter.com/loogunda/status/1498603231202664449,https://twitter.com/EremNews/status/1498607642037858304?s=20&t=hcr1ApTHUaDPWdhndnjZLA","Type of area affected=Administrative,Weapon System=Cruise missile"
"CIV0105","03/01/2022","50.514881","30.598049","Kyiv","Civilian vehicles, residential building damaged in shelling.","HIDDEN","Type of area affected=Residential,Weapon System=Unknown"
"CIV0107","03/01/2022","46.678874","32.613894","Kherson","Strike on a residential building, four people reported injured.","HIDDEN","Type of area affected=Residential,Weapon System=Unknown"
"CIV0125","03/01/2022","46.584286","30.553615","Dachnoye","Civilian houses shelled.","https://twitter.com/zloy_odessit/status/1498627544437960710,https://twitter.com/RadovaNata/status/1498629509653880834,https://twitter.com/Angelkin_xmarki/status/1498630021119885314","Type of area affected=Residential,Weapon System=Unknown"
"CIV0128","03/01/2022","46.670911","32.609178","Kherson","School No. 24 shelled in Kherson.","https://twitter.com/hochu_dodomu/status/1498641493522800645","Type of area affected=School or childcare,Weapon System=Unknown"
"CIV0130","03/01/2022","46.650489","32.594389","Kherson","Soldiers in Russian uniform loot a supermarket.","https://twitter.com/Elisonext/status/1498654294807035905","Type of area affected=Commercial"
"CIV0131","03/01/2022","50.639733","29.917397","Kyiv, Borodyanka","Soldiers in Russian uniform appear to shoot at person filming them.","https://twitter.com/MarQs__/status/1498632893568065541?s=20&t=YezQ6cWqbRHCl9P3C5tHRw","Type of area affected=Undefined,Weapon System=Small arms"
"CIV0132","03/01/2022","50.639371","29.919503","Kyiv, Borodyanka","Widespread and significant damage to residential area.","","Type of area affected=Residential,Weapon System=Unknown"
"CIV0134","03/01/2022","49.949748","36.156047","Kharkiv","[Graphic: Videos and pictures show multiple dead and dismembered bodies lying on the street] Widespread destruction and at least one fatality in an alleged airstrike on a residential area.","https://twitter.com/itsector/status/1498669362789638150,https://t.me/nexta_live/18884,https://twitter.com/LatestNews315/status/1498711222463746050,https://twitter.com/ukrainiareality/status/1498643415558459403,https://twitter.com/UkraineNewsLive/status/1498641837434748930,https://twitter.com/UkraineWhat/status/1499051939333644300?s=20&t=hfCOP-19SL9bQPnhci0LXw","Type of area affected=Residential,Weapon System=Unknown"
"CIV0135","03/01/2022","50.02564","36.258106","Kharkiv","Building located in the Kharkiv State Aircraft Manufacturing Company complex. Most likely not a hospital. Entrance to nearby underground entrance also damaged.","https://t.me/hueviykharkov/47292","Type of area affected=Industrial,Weapon System=Unknown"
"CIV0137","03/01/2022","50.471321","30.45342","Kyiv","[Graphic: Images show three charred bodies] Three civilians killed in strike near Kyiv TV Tower.","https://t.me/Pravda_Gerashchenko/1220,https://t.me/nexta_live/18900,https://twitter.com/nytimes/status/1498709681816092681?s=20&t=5-ivsUz8xgTZhb6Q5Vpntw,https://twitter.com/MFA_Ukraine/status/1498689753448947722?s=20&t=3FOeYhLr2KuPrw894V_MdA,https://twitter.com/KyivIndependent/status/1498686375373254658?s=20&t=5-ivsUz8xgTZhb6Q5Vpntw,https://t.me/uniannet/33935,https://twitter.com/mjluxmoore/status/1498684050692886537?s=20&t=5-ivsUz8xgTZhb6Q5Vpntw,https://twitter.com/ASLuhn/status/1498697887265476610?s=20&t=5-ivsUz8xgTZhb6Q5Vpntw,https://twitter.com/aldin_ww/status/1498719965033156616?s=20&t=5-ivsUz8xgTZhb6Q5Vpntw,https://twitter.com/MarQs__/status/1498700972243226633?s=20&t=5-ivsUz8xgTZhb6Q5Vpntw,https://twitter.com/SaberiFred/status/1498715284483497986?s=20&t=5-ivsUz8xgTZhb6Q5Vpntw","Type of area affected=Industrial,Weapon System=Air strike"
"CIV0138","03/01/2022","50.641922","29.929294","Borodyanka","Tank opens fire on residential building.","https://www.youtube.com/watch?app=desktop&v=hVgp4yrUIJw,https://twitter.com/ELINTNews/status/1498702380271083520","Type of area affected=Residential,Weapon System=Vehicle mounted weapon"
"CIV0139","03/01/2022","47.10989","37.552784","Mariupol","Tochka ballistic missile strike with 9N24 submunitions on residential area near playground and school.","https://www.facebook.com/mariupolrada.gov.ua/posts/3177453432580777?__cft__[0]=AZV1dXzA949shp6ZXL3vKIzOeAL5a-CdSeJZzxNWQgEWAmCNHJGT1hONw1oxLR6z6cbbpxDnP7ZpZfG8w1gce_aco-03ng1eFRp_GIPesUXeTlqsugNcUSxKBN8cSdptQNklGTWDOJy2B46-HqfrtUjS&__tn__=%2CO%2CP-R,https://t.me/mariupol/3581,https://t.me/vorposte/14610,https://www.facebook.com/mariupolrada.gov.ua/posts/3178160222510098?__cft__[0]=AZX34Suv1_eEJhZ5zBCzCLbwSfj1EKFB3UYysiUe2LQvzrVgzh-9lRiJzeg4TuYnrseq6l2AXbaI49_2Vb1HrScyPoeorvoFEMteh3ZQ8yFfBBAfB2E4asnmydzFqZvCuJ4bOORVbdF4SpUYtdQ6m5pq&__tn__=%2CO%2CP-R","Type of area affected=Residential,Weapon System=Cluster munitions"
"CIV0143","03/01/2022","46.658512","32.571421","Kherson","[graphic: badly wounded bodies] Dead civilians in a forest; allegedly shot by Russian soldiers while making Molotov cocktails.","https://twitter.com/ignis_fatum/status/1498816059981238275?s=21,https://www.youtube.com/watch?v=mD3gIx6H_bA,https://www.youtube.com/shorts/XUdZ3tLHF3k","Type of area affected=Undefined,Weapon System=Vehicle mounted weapon"
"CIV0384","03/01/2022","48.045383","37.790413","Donetsk city","Destruction caused to residential buildings.","https://t.me/nm_dnr/6566","Type of area affected=Residential,Weapon System=Unknown"
"CIV0391","03/01/2022","47.946399","37.602613","Petrovsky, Donetsk","Damage to various buildings (including school) after reported artillery strike.","https://t.me/DNR_SCKK/6376","Type of area affected=Residential,Weapon System=Unknown"
"CIV0392","03/01/2022","47.993138","37.68033","Kirov district, Donetsk","Damage to residential area, including an old person's home, after artillery strike.","https://t.me/DNR_SCKK/6386","Type of area affected=Healthcare,Weapon System=Unknown"
"CIV0430","03/01/2022","50.430225","30.02996","Kyiv","What appear to be civilian vehicles hit by machine-gun fire, reportedly from a vehicle.","https://twitter.com/Fbeyeee/status/1504871878954991616?s=20&t=1S7d5iqKg3EBAR8ysgA5fg","Type of area affected=Undefined,Weapon System=Vehicle mounted weapon"
"CIV0141","03/02/2022","49.998385","36.23507","Kharkiv","Headquarters of the National Police and Security Service of Ukraine, and the building of the Faculty of Economics of Kharkiv National University, suffered significant damage and was set on fire after strike.","https://twitter.com/ChristopherJM/status/1498911842286063616,https://twitter.com/DAlperovitch/status/1498917790845177859","Type of area affected=Administrative,Weapon System=Unknown"
"CIV0142","03/02/2022","50.541524","30.263952","Irpin, Kyiv vicinity","Strike damage to residential area.","https://t.me/Tsaplienko/1543,https://twitter.com/Den_2042/status/1498924276128305154?s=20&t=Ttn1cbGQ2md02mL9Qkx6gA","Type of area affected=Residential,Weapon System=Unknown"
"CIV0145","03/02/2022","49.930557","36.415885","Kharkiv","Primary school #75 in Kharkiv shelled.","https://t.me/truexanewsua/27415","Type of area affected=School or childcare,Weapon System=Unknown"
"CIV0147","03/02/2022","49.937728","36.40341","Kharkiv","Primary school #118 in Kharkiv suffered damage from a strike.","https://t.me/truexanewsua/27411","Type of area affected=School or childcare,Weapon System=Unknown"
"CIV0149","03/02/2022","49.935277","36.409889","Kharkiv","Strike in residential area.","https://twitter.com/OstapYarysh/status/1498906055534952449?s=20&t=nh-3TluT3CgbI6JJUmXgbQ,https://t.me/uniannet/34144","Type of area affected=Residential,Weapon System=Unknown"
"CIV0154","03/02/2022","48.920794","38.402965","Lysychansk","Strike on large store.","https://t.me/Doninside/9860,https://twitter.com/rescuero/status/1498977317690957827","Type of area affected=Commercial,Weapon System=Unknown"
"CIV0155","03/02/2022","48.952449","38.358095","Lysychansk","Strike on brewery. Likely a ballistic missile.","https://twitter.com/rescuero/status/1498988051174989832?s=20&t=mywWeVgKyNlqWBLmET-yRg","Type of area affected=Industrial,Weapon System=Unknown"
"CIV0156","03/02/2022","50.639698","29.918183","Borodyanka","Strike on what appears to be a residential area.","https://twitter.com/Nat_anest/status/1498978704524992516?s=20&t=mywWeVgKyNlqWBLmET-yRg","Type of area affected=Residential,Weapon System=Unknown"
"CIV0157","03/02/2022","49.989588","36.232128","Kharkiv","Strike in what appears to be civilian area, possibly near city council.","https://twitter.com/michaelh992/status/1498998147636502532?s=20&t=vfj9GwN5xa5SK6ZXZmP2_Q","Type of area affected=Administrative,Weapon System=Unknown"
"CIV0159","03/02/2022","50.020782","36.327713","Kharkiv","Apparent impact at Kharkiv School 17","https://twitter.com/nexta_tv/status/1498994384880209925,https://twitter.com/nexta_tv/status/1498994384880209925?s=20&t=PX8T6lrqKTaPzsuOSUoeYw","Type of area affected=School or childcare,Weapon System=Unknown"
"CIV0160","03/02/2022","48.939691","38.500354","Severodonetsk","Damage to a kindergarten building","https://twitter.com/GirkinGirkin/status/1498999782861377538","Type of area affected=School or childcare,Weapon System=Unknown"
"CIV0165","03/02/2022","47.477645","34.643028","Enerhodar","[Graphic: Video shows what a person being seriously wounded or killed by an explosion] An explosion at the site of a protest injures or kills one person.","https://twitter.com/RALee85/status/1499073503902973964?s=20&t=2HKJRUPKmMU0_U7TfV-53A","Type of area affected=Undefined,Weapon System=Unknown"
"CIV0178","03/02/2022","50.00768","36.237758","Kharkiv","Reported school for blind children shelled in Kharkiv","https://t.me/truexanewsua/27910","Type of area affected=School or childcare,Weapon System=Unknown"
"CIV0246","3/2/2022","50.004544","36.237484","Kharkiv","Strike on what appears to be a residential area.","https://t.me/truexanewsua/27889","Type of area affected=Residential,Weapon System=Unknown"
"CIV0272","3/2/2022","49.980342","36.176673","Kharkiv","Shops and residences damaged in Kharkiv.","https://twitter.com/bura_tinko/status/1498899746521587713","Type of area affected=Residential,Weapon System=Unknown"
"CIV0168","03/03/2022","49.190128","37.277762","Izyum (Kharkiv Region)","Residential area damaged by shelling","https://t.me/nexta_live/19279","Type of area affected=Residential,Weapon System=Unknown"
"CIV0172","03/03/2022","49.989733","36.232544","Kharkiv","Widespread damage to civilian buildings and streets in bombing/shelling","https://t.me/hueviykharkov/47710","Type of area affected=Commercial,Weapon System=Unknown"
"CIV0183","03/03/2022","47.09798","37.502158","Mariupol","Shopping center and warehouse burning","https://twitter.com/YWNReporter/status/1499330481728499719","Type of area affected=Commercial,Weapon System=Unknown"
"CIV0184","03/03/2022","48.862155","38.478099","Lysychansk","Damage to residential buildings in 1st Mikrorayon","https://www.facebook.com/sergey.gaidai.loga/posts/133329415873117","Type of area affected=Residential,Weapon System=Unknown"
"CIV0185","03/03/2022","50.367839","30.39436","Gatne, near Kyiv","Homes damaged by bombing/shelling","https://twitter.com/OsintTv/status/1499326903941050370","Type of area affected=Undefined,Weapon System=Unknown"
"CIV0186","03/03/2022","51.500055","31.246599","Chernihiv","Two schools and residential buildings struck, Governor Chaus reported nine deaths","HIDDEN","Type of area affected=School or childcare,Weapon System=Air strike"
"CIV0189","03/03/2022","51.499794","31.278018","Chernihiv","Residential building destroyed in airstrike, voice notes that a pharmacy has also been hit. Multiple munitions observed in the air in dashcam source; civilian casualties visible at the end of the video. Reports of 30 fatalities.","https://t.me/uniannet/34755,https://twitter.com/Ukropo4kA/status/1499355556045328386,https://twitter.com/InnaSovsun/status/1499455753282899974?s=20&t=Wh5EKtipOmCbQoH-oB2OJQ,https://twitter.com/i_army_org/status/1499343075377926144?s=20&t=c6PFJKWMwoMMFaz5pkqgDg,https://twitter.com/TWMCLtd/status/1499349949158416384,https://twitter.com/ArmedForcesUkr/status/1499728883180093441?s=20&t=sOdD2Q-L9YGH1GRnp-msyw,https://t.me/truexanewsua/28691","Type of area affected=Residential,Weapon System=Air strike"
"CIV0190","3/3/2022","50.030499","36.284067","Kharkiv","Multiple Launch Rocket System on what appears to be a residential area. Area of impact close to airport.","https://twitter.com/KyleJGlen/status/1499336508364492801,https://twitter.com/KyleJGlen/status/1499336508364492801?s=20&t=wQbcvAgAVgQ6A8oWjLPbXg","Type of area affected=Residential,Weapon System=HE rocket artillery"
"CIV0191","3/3/2022","50.642728","29.93281","Borodyanka","Catastrophic damage to what appears to be a residential building.","https://twitter.com/mariabarabash/status/1499372340412620801?s=20&t=u-LTUYYFyPOmbH1B2qNY6w,https://twitter.com/ua_industrial/status/1499366332147638277?s=20&t=u-LTUYYFyPOmbH1B2qNY6w,https://t.me/bbcrussian/23840,https://twitter.com/BowenBBC/status/1511621244625592323?s=20&t=_DmfNUc88If9t2iuBRHdfQ","Type of area affected=Residential,Weapon System=Unknown"
"CIV0195","03/03/2022","50.031408","36.253556","Kharkiv","Cluster munition attack in residential area of Kharkiv near to the airport","https://twitter.com/EmmettLesterSan/status/1499444045164138501?s=20&t=tobBaKGYkLF2Br2cClyorw","Type of area affected=Residential,Weapon System=Cluster munitions"
"CIV0196","03/03/2022","50.01637","36.354336","Kharkiv","Aftermath of an attack on a car park in a residential area","https://t.me/truexanewsua/28905","Type of area affected=Residential,Weapon System=Unknown"
"CIV0242","3/3/2022","50.025893","36.341599","Kharkiv","Rocket motor for Multiple Launch Rocket System launched cluster munitions on the street in Kharkiv.","https://t.me/truexanewsua/27647","Type of area affected=Residential,Weapon System=Cluster munitions"
"CIV0244","3/3/2022","50.02589","36.240612","Kharkiv","Rocket motor for cluster munitions in park path in Kharkiv","https://t.me/truexanewsua/35644","Type of area affected=Undefined,Weapon System=Cluster munitions"
"CIV0245","3/3/2022","46.639039","32.627524","Kherson","Victim operated device on street in Kherson","https://t.me/truexanewsua/28705","Type of area affected=Administrative,Weapon System=Unknown"
"CIV1700","03/03/2022","49.824958","36.137329","","Residential housing destroyed, as a result of shelling. At least 4 people reported dead, 14 reported injured.","","Type of area affected=Residential,Weapon System=Air strike"
"CIV0197","3/4/2022","50.251238","28.663794","
Zhytomyr","Buildings destroyed in shelling, including heavy damage to a school.","https://t.me/suspilnenews/7092,https://twitter.com/EmineDzheppar/status/1499665706291544066?s=20&t=jGA8xiOIjP1NQENkftSPZQ","Type of area affected=School or childcare,Weapon System=Unknown"
"CIV0199","3/4/2022","46.063386","30.449142","Zatoka, Odessa Region","RBK-500 air-dropped cluster munition remnant and multiple dud PTAB-1Ms in residential area. Reportedly an RBK 250 also recovered (source 3)","https://t.me/suspilnenews/7037,https://www.facebook.com/DSNSODE/videos/287010830206212,https://www.facebook.com/DSNSODE/photos/7282992991743344,https://www.facebook.com/DSNSODE/photos/7282992968410013","Type of area affected=Residential,Weapon System=Cluster munitions"
"CIV0200","3/4/2022","50.00358","36.236976","Kharkiv","Heavy damage, likely from artillery, to administrative area.","https://twitter.com/SputnikATO/status/1499719758652088320","Type of area affected=Administrative,Weapon System=Unknown"
"CIV0201","3/4/2022","48.941202","38.493199","Severodonetsk","Heavy damage to local tourism centre (which holds events for children) and surrounding civilian buildings","HIDDEN","Type of area affected=School or childcare,Weapon System=Unknown"
"CIV0203","3/4/2022","50.023875","36.360823","Pivnichna Saltivka, Kharkiv","Damage to residential buildings by explosive weapon.","https://twitter.com/no_itsmyturn/status/1499655936918671360?s=20&t=jGA8xiOIjP1NQENkftSPZQ,https://twitter.com/no_itsmyturn/status/1499655951116390404?s=20&t=PwHY_JPYEGn_wsdvdJg7Nw","Type of area affected=Residential,Weapon System=Unknown"
"CIV0204","3/4/2022","47.10472","37.635406","Mariupol","Damage to residential & commercial areas","https://twitter.com/GirkinGirkin/status/1499655677203128321?s=20&t=2n52Zjxi_VKRUXIWNBmWPg","Type of area affected=Undefined,Weapon System=Unknown"
"CIV0205","3/4/2022","50.028341","36.345121","Kharkiv","Report of shelling of residential area.","https://twitter.com/MarQs__/status/1499696196016820228?s=20&t=yQKJ65UQuiOZeeIkorHogw","Type of area affected=Residential,Weapon System=Unknown"
"CIV0206","03/04/2022","50.574281","30.263871","Hostomel, Kyiv","Residential block repeatedly struck by what appears to be a direct-fire weapon.","HIDDEN","Type of area affected=Residential,Weapon System=Unknown"
"CIV0209","3/4/2022","48.942209","38.495751","Severodonetsk","Damage to central city library","https://www.facebook.com/photo?fbid=7095376223837245&set=pcb.7095377023837165","Type of area affected=Administrative,Weapon System=Unknown"
"CIV0248","3/4/2022","50.021807","36.350644","Kharkiv, 531 Microdistrict","Civilian casualties after shelling in Kharkiv","https://t.me/truexanewsua/29409","Type of area affected=Residential,Weapon System=Unknown"
"CIV0251","3/4/2022","50.043435","36.325147","Velyka Danylivka, Kharkiv","Primary school #96 in Velyka Danylivka was damaged by shelling.","https://t.me/truexanewsua/29313","Type of area affected=School or childcare,Weapon System=Unknown"
"CIV0252","3/4/2022","50.034931","36.368948","Kharkiv, Saltovka district","Block of flats on Metrobudivnykiv St. in Kharkiv damaged after shelling.","https://t.me/truexanewsua/29393","Type of area affected=Residential,Weapon System=Unknown"
"CIV0253","3/4/2022","50.028525","36.344855","Kharkiv","Block of flats is on fire due to explosion.","https://t.me/truexanewsua/29481","Type of area affected=Residential,Weapon System=Unknown"
"CIV0254","3/4/2022","50.439808","30.294673","Chaiky, Kyiv oblast","Administrative/commercial building damaged in explosion.","https://t.me/voyna_novost/18307","Type of area affected=Administrative,Weapon System=Unknown"
"CIV0258","3/4/2022","50.522349","30.226315","Irpin","Damage, reportedly from artillery and fire at the University of the State Fiscal Service of Ukraine.","https://twitter.com/dtcdonetskua/status/1500136681508376589,https://www.facebook.com/photo/?fbid=326150029552893&set=pcb.326150199552876,https://twitter.com/Armia_fm/status/1499804381797093380?s=20&t=jUjlCq30cWzevD6Kd7sa4A","Type of area affected=School or childcare,Weapon System=Unknown"
"CIV0261","3/4/2022","47.506362","34.584835","Enerhodar, Zaporizhzhia oblast","What appears to be an attack by an armoured column on Zaporizhzhia Nuclear Power Station.","https://twitter.com/HromadskeRadio/status/1500194946917273601/photo/3,https://t.me/truexanewsua/29198,https://www.youtube.com/watch?v=fYUT36YGOh8,https://twitter.com/gbrumfiel/status/1499799810609668106","Type of area affected=Industrial,Weapon System=Vehicle mounted weapon"
"CIV0263","3/4/2022","50.434676","30.08831","Hurivshchyna, Kyiv oblast","Civilian killed in vehicle.","https://t.me/truexanewsua/29344","Type of area affected=Undefined,Weapon System=Vehicle mounted weapon"
"CIV0761","03/04/2022","49.946453","36.269204","Kharkiv","[Graphic: multiple bodies] Seven people reported to be killed, and 34 wounded in Kharkiv.","https://t.me/truexanewsua/38754,https://t.me/truexanewsua/38739,https://t.me/truexanewsua/38716,https://t.me/truexanewsua/38709","Type of area affected=Residential,Weapon System=Cluster munitions"
"CIV0911","03/04/2022","49.342847","37.527481","Izyum","No. 167 school destroyed by explosions.","https://t.me/Info_Izyum/402","Type of area affected=School or childcare,Weapon System=Unknown"
"CIV0207","3/5/2022","49.804617","30.096714","Bila Tserkva, Kyiv Region","20 houses reported to have been damaged by a strike, as well as further casualties.","https://twitter.com/police_kyiv_obl/status/1500029178443448324?s=20&t=w5AvDOyFJZ_Dd-tDKq5xPA,https://twitter.com/shaunwalker7/status/1500059651546755073","Type of area affected=Residential,Weapon System=Unknown"
"CIV0208","3/5/2022","49.536343","39.105627","Novopskov, Luhansk Region","Civilian shot in leg at reported protest","","Type of area affected=Undefined,Weapon System=Small arms"
"CIV0210","3/5/2022","50.024612","36.339788","Kharkiv","Novosaltovsky market in Kharkiv destroyed","https://t.me/Pravda_Gerashchenko/2163,https://t.me/nexta_live/20056","Type of area affected=Commercial,Weapon System=Unknown"
"CIV0211","3/5/2022","50.957884","28.611697","Korosten, Zhytomyr region","Widespread damage to residential buildings in village. Allegedly 1 person killed. Very large crater.","https://t.me/Pravda_Gerashchenko/2171,https://www.youtube.com/watch?v=u6mxPykym-0","Type of area affected=Residential,Weapon System=Unknown"
"CIV0212","3/5/2022","50.008247","36.277868","Zhuravlevka","Apparent school damaged in bombing/shelling","https://t.me/hueviykharkov/48463","Type of area affected=School or childcare,Weapon System=Unknown"
"CIV0222","3/5/2022","50.034268","36.36907","Saltovka, Kharkiv","Residential building on fire with what appears to be explosive damage.","https://twitter.com/verkhovna_rada/status/1500112907857805314?s=20&t=GqTOFHa6gHfWQzs02eGxSQ,https://twitter.com/no_itsmyturn/status/1500185360676044803,https://t.me/spravdi/1526","Type of area affected=Residential,Weapon System=Unknown"
"CIV0224","3/5/2022","50.041575","36.359368","Saltovka, Kharkiv","Catastrophic damage to residential building, reportedly after strikes.","https://twitter.com/AlexandruC4/status/1500145959375884289,https://t.co/oYz83rxpHS,https://twitter.com/RALee85/status/1500385862886035456?s=20&t=TjkNDOru4S1sy3KsqTFRlg,https://twitter.com/FedorovMykhailo/status/1500808295350775809?s=20&t=4XJHaeUf5nMjVZcHS4ithg,https://t.me/truexanewsua/30440","Type of area affected=Residential,Weapon System=Unknown"
"CIV0256","3/5/2022","50.497335","30.242247","Irpin","Residential building impacted by projectiles.","https://t.me/Novoeizdanie/6895,https://t.me/Kievskiy_dvizh_novosti/4038","Type of area affected=Residential,Weapon System=Unknown"
"CIV0273","3/5/2022","50.041001","36.357136","Kharkiv, North Saltovka","Kindergarten, residential buildings damaged in explosion.","https://t.me/truexanewsua/29944","Type of area affected=School or childcare,Weapon System=Unknown"
"CIV0294","03/05/2022","50.497276","31.258481","Peremoha","Multiple Launch Rocket System launching from civilian area towards South West.","https://twitter.com/BackAndAlive/status/1500447665024348168?s=20&t=3LvW9DVNBIIQR8JNJRAflw","Type of area affected=Residential,Weapon System=HE rocket artillery"
"CIV0213","3/6/2022","50.08927","36.255799","Kharkiv","[Graphic: blood and bodies] Strike on a line of civilians queueing outside a supermarket. Multiple small impacts indicate cluster munitions.","https://twitter.com/aliev_aliev/status/1500434615542161411,https://twitter.com/Mila100500/status/1500524057556570119,https://twitter.com/Sabados7/status/1500537351227035656?s=20&t=GDPGMwJ7XCqdrRTz4z_dzQ","Type of area affected=Commercial,Weapon System=Cluster munitions"
"CIV0215","3/6/2022","49.242345","28.603789","Vinnytsia","Strike on Vinnytsia Havryshivka International Airport","https://twitter.com/no_itsmyturn/status/1500465245210525696,https://twitter.com/tweetsNV/status/1500463681863364613,https://twitter.com/Cen4infoRes/status/1500488064443072512?s=20&t=rgyuvVoZFYxPm5oqK0fSkg,https://www.reddit.com/r/CombatFootage/comments/t7y9wb/president_zelensky_confirmed_that_the_8_ballistic/?utm_source=share&utm_medium=mweb","Type of area affected=Undefined,Weapon System=Cruise missile"
"CIV0217","3/6/2022","50.4896","30.259741","Irpen', Kyiv region","[Graphic: bodies] Three members of a family of four reportedly killed by strike in corridor being used by civilians. Crater visible in some videos.","https://twitter.com/KyleJGlen/status/1500432948390158338,https://twitter.com/lynseyaddario/status/1500469003780771846,https://twitter.com/StratejikGndem3/status/1500443151957471240?s=20&t=6RVU-e_0ChImJ3AHpWlYYA,https://twitter.com/StratejikGndem3/status/1500472656549842955?s=20&t=6RVU-e_0ChImJ3AHpWlYYA,https://twitter.com/olex_scherba/status/1500510896619237382?s=20&t=nTR7XJITxjvNhsMp7zS8Cw,https://twitter.com/ukraine_world/status/1500486915040190466?s=20&t=nTR7XJITxjvNhsMp7zS8Cw,https://twitter.com/EncryptEddie/status/1500507266633674752?s=20&t=nTR7XJITxjvNhsMp7zS8Cw,https://twitter.com/XyKyiv/status/1500501306133336067?s=20&t=CDkM_Huu-jlAAMH4yn95mw,https://t.me/Pravda_Gerashchenko/2304","Type of area affected=Residential"
"CIV0218","3/6/2022","50.041031","36.357721","Saltovka, Kharkiv","A reported kindergarten and playground damaged in bombing/shelling","","Type of area affected=School or childcare,Weapon System=Unknown"
"CIV0219","3/6/2022","50.033648","36.366211","Saltovka, Kharkiv","Residential buildings on fire due to bombing/shelling","","Type of area affected=Residential,Weapon System=Unknown"
"CIV0220","3/6/2022","51.330196","28.800319","Ovruch, Zhytomyr region","Extensive damage to homes from a strike. CCTV indicates event happened at 02:25 AM on the 6th. Significant crater. Ukrainian military base approx 200m away at 51.328175, 28.800817.","https://t.me/Pravda_Gerashchenko/2218","Type of area affected=Residential,Weapon System=Unknown"
"CIV0225","3/6/2022","50.655189","31.072859","Bobrik, Kyiv region","""Voznesensʹka Tserkva"" church damaged by strike","","Type of area affected=Religious,Weapon System=Unknown"
"CIV0226","3/6/2022","48.726286","37.606076","Kramatorsk","Residential building hit by missile; two reported dead","https://t.me/nexta_live/20114","Type of area affected=Residential,Weapon System=Unknown"
"CIV0228","3/6/2022","50.060738","36.20195","Kharkiv","Residential building hit by explosion","https://t.me/nexta_live/20188","Type of area affected=Residential,Weapon System=Unknown"
"CIV0265","3/6/2022","50.421482","30.045119","Buzova, Kyiv oblast","School damaged in explosion.","https://t.me/c/1248149892/8151","Type of area affected=School or childcare,Weapon System=Unknown"
"CIV0266","3/6/2022","50.023115","36.322359","Kharkiv, Microdistrict 522","Rocket motor for cluster munitions embedded in a playground in Kharkiv.","https://t.me/truexanewsua/30188","Type of area affected=Residential,Weapon System=Cluster munitions"
"CIV0267","03/06/2022","49.982676","36.197584","Kharkiv","Correctional facility and adjacent buildings damaged in explosion.","https://t.me/truexanewsua/30200","Type of area affected=Administrative,Weapon System=Unknown"
"CIV0278","3/6/2022","47.661606","36.251095","Hulyaipole","Destruction of local Orthodox Church, allegedly by artillery","https://www.facebook.com/vladmoroko/posts/4791700574200793","Type of area affected=Religious,Weapon System=Unknown"
"CIV0387","03/06/2022","47.921505","37.57133","Donetsk","Three reported wounded after an artillery strike.","https://t.me/nm_dnr/6763","Type of area affected=Residential,Weapon System=Unknown"
"CIV0388","03/06/2022","48.057841","37.77948","Donetsk","Three wounded after a strike reportedly hit a kindergarten.","https://t.me/nm_dnr/6772","Type of area affected=School or childcare,Weapon System=Unknown"
"CIV0389","03/06/2022","48.054767","37.777684","Donetsk city","Three reported injured after a strike immediately next to a hospital.","https://t.me/nm_dnr/6778","Type of area affected=Healthcare,Weapon System=Unknown"
"CIV0393","03/06/2022","48.048352","37.777249","Donetsk","Damage to residential areas.","https://t.me/DNR_SCKK/6564","Type of area affected=Residential,Weapon System=Unknown"
"CIV0232","3/7/2022","50.03331","36.366216","Kharkiv","Residential building destroyed by explosion; dead civilians in rubble.","https://t.me/nexta_live/20243,https://www.youtube.com/watch?v=jiABSjtmAIA","Type of area affected=Residential,Weapon System=Unknown"
"CIV0233","3/7/2022","50.058874","36.199306","Kharkiv ","Residential building, cars damaged by explosion","https://t.me/Pravda_Gerashchenko/2356","Type of area affected=Residential,Weapon System=Unknown"
"CIV0234","3/7/2022","50.766974","29.242099","Malyn, Zhytomir region","Residential, commercial buildings damaged/destroyed by explosion","https://t.me/Pravda_Gerashchenko/2384?single,https://t.me/Pravda_Gerashchenko/2394","Type of area affected=Residential,Weapon System=Unknown"
"CIV0235","3/7/2022","50.035729","36.230024","Kharkiv ","Residential buildings damaged by explosion. Large explosion crater in playground.","https://t.me/uniannet/35981","Type of area affected=Residential,Weapon System=Unknown"
"CIV0236","3/7/2022","49.98732","36.244451","Kharkiv","Residential buildings, vehicles destroyed by explosion","https://t.me/uniannet/36001","Type of area affected=Administrative,Weapon System=Unknown"
"CIV0238","3/7/2022","46.672852","32.643839","Kherson","Shopping centre destroyed by explosion","https://t.me/vorposte/15395","Type of area affected=Commercial,Weapon System=Unknown"
"CIV0241","3/7/2022","50.703613","31.150294","Zavorychi, Kyiv vicinity","A church on fire after reportedly being struck by artillery.","https://twitter.com/michaelh992/status/1500850363301343240","Type of area affected=Religious,Weapon System=Unknown"
"CIV0276","3/7/2022","49.987929","36.244345","Kharkiv","The historical building on fire in Kharkiv (at night)","https://t.me/operativnoZSU/11814","Type of area affected=Undefined,Weapon System=Unknown"
"CIV0277","3/7/2022","50.04056","36.226122","Kharkiv, 5-Y Mikrorayon (district)","Kindergarten and nearby apartments damaged by explosion.","https://t.me/truexanewsua/30534,https://t.me/truexanewsua/30480","Type of area affected=School or childcare,Weapon System=Unknown"
"CIV0279","3/7/2022","46.942366","32.035242","Mykolaiv ","Rocket motors embedded in various locations.","https://t.me/suspilnemykolaiv/4748,https://t.me/suspilneMykolaiv/4748","Type of area affected=Residential,Weapon System=Cluster munitions"
"CIV0280","03/07/2022","50.897377","34.767084","Sumy","Residential area destroyed","https://t.me/nexta_live/20560","Type of area affected=Residential,Weapon System=Unknown"
"CIV0281","03/07/2022","49.189041","37.273548","Izum, Kharkiv region","Hospital destroyed by explosion","https://twitter.com/KyivIndependent/status/1501218105342763020","Type of area affected=Healthcare,Weapon System=Unknown"
"CIV0284","03/07/2022","48.514479","39.299536","Luhansk ","Oil refinery damaged by strike, reportedly by Tochka ballistic missile.","https://t.me/medvedev_note/3740,https://t.me/rian_ru/151722,https://t.me/LIC_LPR/19779","Type of area affected=Industrial,Weapon System=Unknown"
"CIV0286","03/07/2022","50.044042","36.278536","Kharkiv","Residential area with damage from likely artillery strike.","https://twitter.com/SputnikATO/status/1500805645485985794","Type of area affected=Residential,Weapon System=Unknown"
"CIV0287","03/07/2022","46.842284","32.004581","Mykolaiv ","Multiple Launch Rocket System strike on residential area.","https://twitter.com/GirkinGirkin/status/1500804490106179589?s=20&t=RPU0dUCUzl58CQX8cvVI8A","Type of area affected=Residential,Weapon System=HE rocket artillery"
"CIV0288","3/7/2022","49.980002","36.359748","Kharkiv","Fire in residential tower block.","https://twitter.com/no_itsmyturn/status/1500833207348232192?s=20&t=8l6tS51JwKJ6JsNLeL83gw","Type of area affected=Residential,Weapon System=Unknown"
"CIV0370","03/07/2022","49.196101","37.275429","Izyum","New Life evangelical prayer hall damaged by attack","HIDDEN","Type of area affected=Religious,Weapon System=Unknown"
"CIV0371","03/07/2022","50.439532","30.146396","Kyiv","Drone footage of an individual with their hands up dressed in civilian clothes appearing to be shot by people with white bands around their limbs, from a position where there is a tank with a white ""V"" marked on it.



BBC report …","","Type of area affected=Undefined,Weapon System=Small arms"
"CIV0416","03/07/2022","46.93802","32.039656","Mykolaiv","Rocket motor impacted next to tram stop.","https://twitter.com/go2the5dogs/status/1500704991794896902?s=20&t=dmTcxuojEGAcHlUjiFe1WQ","Type of area affected=Residential,Weapon System=Cluster munitions"
"CIV0282","03/08/2022","50.007422","36.237555","Kharkiv","Widespread destruction of commercial and residential buildings in the centre of the city","https://twitter.com/GirkinGirkin/status/1501218905158828035?s=20&t=DdGTSpGKddbJrrB9lxFJdw","Type of area affected=Residential,Weapon System=Unknown"
"CIV0292","3/8/2022","50.004094","36.237394","Kharkiv","Heavy damage to residential/commercial area","https://twitter.com/GirkinGirkin/status/1501422413485154306?cxt=HHwWhIC92d3uj9YpAAAA","Type of area affected=Residential,Weapon System=Unknown"
"CIV0293","03/08/2022","50.304197","34.893434","Akhtyrka","Akhtyrka City Council destroyed.","https://twitter.com/SputnikATO/status/1501184212203941897,https://twitter.com/SputnikATO/status/1501184212203941897/photo/2","Type of area affected=Administrative,Weapon System=Unknown"
"CIV0295","03/08/2022","50.028458","36.367133","Kharkiv","Kharkiv tram depot struck.","https://twitter.com/buch10_04/status/1501229036403507206?s=20&t=HIx5AnhcU81_BnyKsWT7Rw","Type of area affected=Industrial,Weapon System=Unknown"
"CIV0296","03/08/2022","47.007301","31.998979","Mykolaiv ","Images and videos reportedly showing the removal of munitions. Images include rocket motors and at least two 9n235 submunitions.","https://www.facebook.com/photo/?fbid=265785982396900&set=pcb.265788295730002,https://www.facebook.com/photo/?fbid=265786085730223&set=pcb.265788295730002,https://www.facebook.com/DSNSMYKOL/posts/265788295730002,https://www.facebook.com/photo/?fbid=265786142396884&set=pcb.265788295730002,https://www.facebook.com/photo/?fbid=265786395730192&set=pcb.265788295730002,https://www.facebook.com/photo/?fbid=265786955730136&set=pcb.265788295730002,https://www.facebook.com/photo/?fbid=265787352396763&set=pcb.265788295730002,https://www.facebook.com/photo?fbid=265785665730265&set=pcb.265788295730002,https://www.facebook.com/100068965007598/videos/pcb.265788295730002/646866249743295,https://www.facebook.com/DSNSMYKOL/posts/265327395776092?__cft__[0]=AZU-YYKRMd1iJaegbs5elxLU4IfxCdajDvTvUpn0GNC3QQeH3eEghPviVusH4aQzdi6TMiPJPDQNeqabTtvUcQkaOYDODN55KL_v4YkNN-lZPwnAjr6nvVf5kVt2VbhSFHSnRqxSGNIAxCWUGtqs64xXsuBt66o6OUu6KfKupWrbMA&__tn__=%2CP-R","Type of area affected=Residential,Weapon System=Cluster munitions"
"CIV0303","03/08/2022","47.104074","37.560414","Mariupol","Large crater visible in residential area","https://twitter.com/muyixiao/status/1501363027765080070?s=20&t=avoe3LwegVeGJ3q4qShUzw","Type of area affected=Residential,Weapon System=Unknown"
"CIV0306","03/08/2022","49.587916","36.566065","Donets, Kharkiv","[graphic: bodies] Child and grandmother reportedly killed in strike.","https://twitter.com/EmineDzheppar/status/1501553563528540172?s=20&t=qwvZoLqRXce2VC0cAkVOog,https://t.me/truexanewsua/31136,https://twitter.com/RealnewsfromUk1/status/1501599227188813830,https://t.me/dsns_telegram/4483","Type of area affected=Residential,Weapon System=Unknown"
"CIV0369","03/08/2022","48.872075","38.438306","Lysychansk","Inside view of school classrooms damaged by attack","https://www.facebook.com/permalink.php?story_fbid=5289271027772692&id=100000695401534","Type of area affected=School or childcare,Weapon System=Unknown"
"CIV0300","03/09/2022","49.19044","37.273879","Izyum","Several buildings damaged in explosions.","https://t.me/truexanewsua/31173","Type of area affected=Administrative,Weapon System=Unknown"
"CIV0301","03/09/2022","50.032571","36.348191","Saltovka, Kharkiv","Residential towerblock on fire.","https://twitter.com/_tredecim_/status/1501448809003507712?s=20&t=n0e7DjsQ2_x1CaVdbyqnXw,https://twitter.com/AlexandruC4/status/1501496022526271488,https://t.me/truexanewsua/31143,https://t.me/truexanewsua/31148","Type of area affected=Residential,Weapon System=Unknown"
"CIV0305","03/09/2022","47.096337","37.533483","Mariupol","Maternity hospital in Mariupol heavily damaged by strike. Multiple injuries and fatalities reported. At least one large crater visible.","https://twitter.com/SputnikATO/status/1501570825803161610?s=20&t=qwvZoLqRXce2VC0cAkVOog,https://twitter.com/SputnikATO/status/1501573361402630148?s=20&t=n0e7DjsQ2_x1CaVdbyqnXw,https://www.facebook.com/100050176913214/videos/pcb.502266578122568/377689807214489,https://www.facebook.com/100050176913214/videos/pcb.502266578122568/664962265240384,https://www.facebook.com/100050176913214/videos/pcb.502266578122568/352284903452236,https://www.facebook.com/pavlokyrylenko.donoda/posts/pfbid0pkhJG8aKmdpeZh5nm4DDc6sLcWGtTzsowrhQUJFaooh4jVGVYWAD3oPiD4NAi8Pcl,https://twitter.com/ZelenskyyUa/status/1501579520633102349?s=20&t=n0e7DjsQ2_x1CaVdbyqnXw,https://twitter.com/SputnikATO/status/1501609169056673798?s=20&t=l8ZEw_NChPy6IDENXYDXsg,https://twitter.com/AlexKokcharov/status/1501609553242337281?s=20&t=l8ZEw_NChPy6IDENXYDXsg,https://twitter.com/SputnikATO/status/1501619569122856968?s=20&t=JL9bVGeM5Vbtw_nOZyNf7Q,https://twitter.com/OlenaIvantsiv/status/1501603358687256581?s=20&t=8f1TR_TwgB1pp4Kkmarmbg,https://twitter.com/Mike_Eckel/status/1502735991379042315,https://twitter.com/AP/status/1503251299999133700?s=20&t=fYehdoSMgf5oVwTeoUIcMA,https://www.youtube.com/watch?v=6-NC-QOhhv4","Type of area affected=Healthcare,Weapon System=Unknown"
"CIV0307","03/09/2022","47.700147","36.825683","Donetsk oblast, Staromlinovka","[graphic: bodies under cover] Military ambulance marked with red cross attacked.","https://twitter.com/GirkinGirkin/status/1501574204868677635,https://www.youtube.com/watch?v=78tYZP8Nx2U","Type of area affected=Administrative,Weapon System=Unknown"
"CIV0308","03/09/2022","47.097234","37.53531","Mariupol","Crater in road in front of hospital and children's hospital.","https://twitter.com/SputnikATO/status/1501576405733236745?s=20&t=n0e7DjsQ2_x1CaVdbyqnXw","Type of area affected=Healthcare,Weapon System=Unknown"
"CIV0309","03/09/2022","47.095335","37.541657","Mariupol","Widespread damage caused by strike.","https://twitter.com/leonidragozin/status/1501590915521122306,https://twitter.com/SputnikATO/status/1501587513865084928?s=20&t=cc4Cr4SEfnwi-nlLM77_pA,https://twitter.com/mrsorokaa/status/1501590222903074816?s=20&t=20wkEyfct46KykQQ3bAo4g","Type of area affected=Administrative,Weapon System=Unknown"
"CIV0310","03/09/2022","49.987587","36.245777","Kharkiv","Damage caused by strike. Large crater visible.","https://twitter.com/ABC/status/1501592163808907266?s=20&t=hJr7WNSlDtlwzEZh3Zf3XQ","Type of area affected=Administrative,Weapon System=Unknown"
"CIV0316","03/09/2022","47.093036","37.559418","Mariupol","Several buildings damaged in explosions. One civilian casualty lying dead on the street.","https://twitter.com/GirkinGirkin/status/1501510292534136834","Type of area affected=Undefined,Weapon System=Unknown"
"CIV0320","03/09/2022","50.308956","34.878604","Okhtyrka","Heavy damage to residential area, large crater visible.","https://twitter.com/EuromaidanPress/status/1501705314407694347,https://t.me/Zhyvytskyy","Type of area affected=Residential,Weapon System=Unknown"
"CIV0364","03/09/2022","46.959675","32.036093","Mykolaiv","1 x rocket motor impacted Mykolaiv zoo.","https://www.youtube.com/watch?v=Jn9k6f0t_64,https://twitter.com/go2the5dogs/status/1500729020706664452?s=20&t=qk_pPu_60hvEogqj7LIFLQ","Type of area affected=Undefined,Weapon System=Cluster munitions"
"CIV0390","03/09/2022","48.029281","37.719078","Donetsk city","Three reported injured after a strike impacted a residential area.","https://t.me/nm_dnr/6834","Type of area affected=Residential,Weapon System=Unknown"
"CIV0321","03/10/2022","47.097156","37.543105","Mariupol","Large crater in residential area.","https://twitter.com/michaelh992/status/1501908509973258245,https://twitter.com/bopanc/status/1501884030962356225","Type of area affected=Residential,Weapon System=Unknown"
"CIV0323","03/10/2022","47.125216","37.683539","Mariupol","What appears to be an artillery barrage impacting a residential area.","https://twitter.com/GraniTweet/status/1501862023365283847?s=20&t=CdzfePXFCSS8NnmIEIQg9g","Type of area affected=Residential,Weapon System=Unknown"
"CIV0324","03/10/2022","47.107327","37.518009","Mariupol","Heavy damage to a building associated with the SESU, Ukrainian civil defence. ","","Type of area affected=Administrative,Weapon System=Unknown"
"CIV0326","03/10/2022","49.03255","38.372778","Rubizhne","Damage to city council building.","https://twitter.com/rescuero/status/1501915834310086661","Type of area affected=Administrative,Weapon System=Unknown"
"CIV0342","03/10/2022","47.095672","37.541472","Mariupol","Commercial, residential, and educational buildings damaged by explosions.","https://t.me/u_now/27122","Type of area affected=School or childcare,Weapon System=Unknown"
"CIV0343","03/10/2022","50.573394","30.267032","Gostomel","Explosion damage to commercial and residential buildings.","https://t.me/u_now/27236","Type of area affected=Residential,Weapon System=Unknown"
"CIV0314","03/11/2022","48.476616","34.979459","Dnipro","Civilians flee into damaged metro station as explosions can be seen in distance","https://t.me/dnepr_operativ/10369,https://twitter.com/search?q=%D0%B4%D0%BD%D0%B8%D0%BF%D1%80%D0%BE&src=typed_query&f=top","Type of area affected=Industrial,Weapon System=Unknown"
"CIV0333","03/11/2022","50.480571","34.96513","Trostyanets","Multiple Launch Rocket System launch from residential area, firing to south-east","https://www.facebook.com/watch/?v=1260719317785495","Type of area affected=Residential,Weapon System=HE rocket artillery"
"CIV0365","03/11/2022","46.944035","32.046613","Mykolaiv","Mykolaiv Oncology Hospital struck by what appears to be cluster munitions.","https://www.facebook.com/maxim.beznosenko/posts/2461092784035403,https://www.facebook.com/100004041173342/videos/pcb.2461092784035403/1141350393349421,https://www.facebook.com/photo?fbid=2461092727368742&set=pcb.2461092784035403,https://www.facebook.com/photo?fbid=2461405834004098&set=pcb.2461092784035403,https://www.facebook.com/maxim.beznosenko/posts/2461478137330201?__cft__[0]=AZW-O_L6WgT7wo6Nc7aKq8Zpm9zwH7LBp99emYJefC8TrK8eOKYaO_bL2BVCFFKQCHVLuydjNQxU7CLNLFuUEw-wxAnQjkn6cLRi-p_9EcQl_4ENN5fYs0wzEpGNfOwZSKA&__tn__=%2CO%2CP-R,https://www.facebook.com/photo?fbid=2461477697330245&set=pcb.2461478137330201,https://www.facebook.com/photo/?fbid=2461478000663548&set=pcb.2461478137330201,https://www.facebook.com/maxim.beznosenko/posts/2461478137330201,https://www.facebook.com/photo/?fbid=2461477937330221&set=pcb.2461478137330201,https://www.facebook.com/photo/?fbid=2461477747330240&set=pcb.2461478137330201,https://www.facebook.com/photo?fbid=2461477967330218&set=pcb.2461478137330201,https://www.facebook.com/photo?fbid=2461477823996899&set=pcb.2461478137330201","Type of area affected=Healthcare,Weapon System=Cluster munitions"
"CIV0367","03/11/2022","51.501931","31.324563","Chernihiv","Tarnovsky House, historic building used as youth library, damaged","https://twitter.com/stefsiohan/status/1503379177784987656","Type of area affected=Undefined,Weapon System=Unknown"
"CIV0368","03/11/2022","48.63053","38.37202","Popasne, Luhansk Region","Damage to front of local historic church, windows shattered","https://www.facebook.com/popasnaya.city/posts/1017893575751691","Type of area affected=Religious,Weapon System=Unknown"
"CIV0549","03/11/2022","49.1691","37.454037","Oskil","A mental health facility was allegedly struck by artillery.","https://www.facebook.com/MNS.GOV.UA/posts/pfbid0uQzsyChSSLeRQhtKKJSpNK69bB2SEM4f7gweoRpJYuMsYqG9FLcGC3QNEHKuPweNl,https://twitter.com/pavlo_sushko/status/1504028676429697025","Type of area affected=Healthcare,Weapon System=Unknown"
"CIV0832","03/11/2022","51.502113","31.325033","Chernihiv","19th century library suffered heavy damage with large crater after strike.","https://twitter.com/AKurkov/status/1516710977911377926,https://www.facebook.com/laievsky/posts/pfbid0Xpp91Hmo1gwq22p7WjzVmT42ExAwRYMyGCsDbeZe7GKb7qrfnvmU38Ay1hCzQwHbl","Type of area affected=Cultural,Weapon System=Unknown"
"CIV1612","03/11/2022","46.962032","32.037595","Mykolaiv","Destruction of the monument ""Brother's Grave"" WW2 memorial in the Central City Cemetery.","https://t.me/suspilnemykolaiv/17812,https://t.me/suspilnemykolaiv/17815","Type of area affected=Cultural,Weapon System=Unknown"
"CIV0313","03/12/2022","50.523182","30.983082","Hoholiv, Kyiv Region","Fish processing factory destroyed by missile","https://www.facebook.com/MNS.GOV.UA/posts/331070479060848,https://t.me/dsns_telegram/4687","Type of area affected=Industrial,Weapon System=Unknown"
"CIV0334","03/12/2022","47.016301","32.000487","Mykolaiv","Cluster munition strike in residential area.","https://twitter.com/loogunda/status/1502585247640309760?s=20&t=jT-b2hp-FxGo9s9ct6Ga8g","Type of area affected=Residential,Weapon System=Cluster munitions"
"CIV0336","03/12/2022","49.96525","36.345139","Kharkiv","Child hugging cargo warhead for cluster munition.","HIDDEN","Type of area affected=Residential,Weapon System=Cluster munitions"
"CIV0338","03/12/2022","50.528701","30.847491","Brovary","Food warehouse struck.","https://twitter.com/lindseyhilsum/status/1502613502065848321?s=20&t=Dl02Ogchdk8RYj2tlrsbFQ,https://twitter.com/DutchFarmerInUA/status/1502679594251476993?s=20&t=50wT5RTHQnjqsa83Azv-CA","Type of area affected=Commercial,Weapon System=Unknown"
"CIV0340","03/12/2022","48.035791","37.771516","Donetsk ","Fire in what appears to be an industrial area after a reported Multiple Launch Rocket System strike.","https://twitter.com/KyleJGlen/status/1502689543178395650?s=20&t=tgnwqMI34XF_GiiHiuKVuQ","Type of area affected=Industrial,Weapon System=Unknown"
"CIV0341","03/12/2022","47.106422","37.516061","Mariupol","Large crater in what appears to be residential area.","https://twitter.com/markito0171/status/1502669866993692677","Type of area affected=Residential,Weapon System=Unknown"
"CIV0550","03/12/2022","48.643172","38.403331","Popasna","Use of Incendiaries, possibly thermite.","https://www.facebook.com/photo?fbid=10225094575784089&set=pcb.10225094577544133,https://www.facebook.com/1609570575/videos/pcb.10225094577544133/493393615709946","Type of area affected=Undefined,Weapon System=Incendiary munitions"
"CIV0895","03/12/2022","49.983595","36.277739","Kharkiv","Damage to what appears to be a commercial building.","https://twitter.com/TpyxaNews/status/1502592202349940740","Type of area affected=Commercial,Weapon System=Unknown"
"CIV0345","03/13/2022","49.028373","37.566533","Sviatogorsk Lavra","Explosion damage to dormitories and church building at Svyatohirsk Lavra Monastery where refugees were sleeping. Reports of several wounded.","https://twitter.com/UjenGoodman/status/1502922815204380675","Type of area affected=Religious,Weapon System=Unknown"
"CIV0348","03/13/2022","50.490646","30.258315","Irpin","US journalist Brent Renaud killed by small arms fire in Irpin.","https://twitter.com/Militarylandnet/status/1502991282364469248?s=20,https://twitter.com/HannaLiubakova/status/1502992440931856386?s=20,https://twitter.com/ronzheimer/status/1502991467299708929?s=20,https://twitter.com/nishatshamsi/status/1502993142345179146?s=20,https://twitter.com/_labour_first/status/1503012215242305537?s=20&t=xu8Lg2nx6jo878SOb8NpAQ","Type of area affected=Undefined,Weapon System=Small arms"
"CIV0350","03/13/2022","50.614717","30.292116","Moschun, Kyiv","Widespread damage caused to village. Unclear if a result of fighting.","https://twitter.com/obretix/status/1503137337538232325?s=20&t=KUeRKbCXvjOTrXOkPgFGpA","Type of area affected=Residential,Weapon System=Unknown"
"CIV0351","03/13/2022","50.037167","36.347795","Saltivka, Kharkiv","Multiple Launch Rocket System barrage onto northern Kharkiv, video shows both the launch and impact.","https://twitter.com/RALee85/status/1503148884180226068?s=20&t=NdK8Cs1v6_CVmDaZBD1JsA","Type of area affected=Residential,Weapon System=HE rocket artillery"
"CIV0653","03/13/2022","47.012606","31.997083","Mykolaiv","Cluster munition strike which killed and wounded multiple people. Vice documentary.","https://twitter.com/marksnoeck/status/1509461735824146433?s=20&t=gMZhDR5MpcMjEDvYsYArJQ,https://twitter.com/IsobelYeung/status/1502945723146379265?s=20&t=gMZhDR5MpcMjEDvYsYArJQ,https://twitter.com/marksnoeck/status/1509461763057717252?s=20&t=gMZhDR5MpcMjEDvYsYArJQ,https://www.youtube.com/watch?v=hhBfNDVs-PY","Type of area affected=Residential,Weapon System=Cluster munitions"
"CIV0356","03/14/2022","50.522629","30.486276","Obolon district, Kyiv","Report of at least one killed in strike on residential apartment block in Kyiv. Significant damage.","https://twitter.com/ASLuhn/status/1503263497790050311?s=20&t=fYehdoSMgf5oVwTeoUIcMA,https://twitter.com/Armia_fm/status/1503258460263260161?s=20&t=fYehdoSMgf5oVwTeoUIcMA,https://t.me/c/1307866449/7605,https://twitter.com/OzKaterji/status/1503332328181018628?s=20&t=g5kab_5PQZT75gRXXgh-8A,https://twitter.com/OzKaterji/status/1503332589461024768?s=20&t=g5kab_5PQZT75gRXXgh-8A,https://twitter.com/KyivIndependent/status/1503283464321347586?s=20&t=fD5igdWRSv-2CFsRrIli0Q","Type of area affected=Residential,Weapon System=Unknown"
"CIV0357","03/14/2022","48.720916","37.511522","Kramatorsk","Large crater and damage in what appears to be a residential area.","https://twitter.com/ValettaOSH/status/1503224659797590018?s=20&t=G7Ccda7b-eQAwDTF-QcaWw,https://twitter.com/ValettaOSH/status/1503224659797590018?s=20&t=6ufwwBxLq6MK1ozrydYjlw,https://twitter.com/ValettaOSH/status/1503223446221824005?s=20&t=6ufwwBxLq6MK1ozrydYjlw,https://twitter.com/ValettaOSH/status/1503230483341234177?s=20&t=6ufwwBxLq6MK1ozrydYjlw","Type of area affected=Residential,Weapon System=Unknown"
"CIV0358","03/14/2022","50.003036","36.237578","Kharkiv","Heavy damage to pink apartment block, reportedly on Freedom St.","https://twitter.com/leonidragozin/status/1503289612692819973?s=20&t=wbi7QvFNFfgmxt8ekzHdOg,https://twitter.com/RALee85/status/1503294503209390083?s=20&t=fD5igdWRSv-2CFsRrIli0Q","Type of area affected=Residential,Weapon System=Unknown"
"CIV0359","03/14/2022","50.599258","26.420979","Rivne","Strike on TV mast and station, reports of 20 fatalities.","https://twitter.com/SDyorin/status/1503258241274417154,https://twitter.com/SDyorin/status/1503258241274417154?s=20&t=PTfrEH0p753oMn8-xxkaUA,https://twitter.com/KyivIndependent/status/1503650279698350081,https://twitter.com/Brian_Castner/status/1513501250578526227?s=20&t=i3E59NnX1_xjVorm7HM31A","Type of area affected=Industrial,Weapon System=Cruise missile"
"CIV0360","03/14/2022","48.008846","37.803819","Donetsk City","What appears to have been a strike using a cluster variant of a Tochka ballistic missile. Reports of tens of casualties.","https://twitter.com/PLnewstoday/status/1503321952160780288?t=i2yQxqu0sq5KZ67EDVw6Yw&s=19,https://t.me/neoficialniybezsonov/8733 ,https://t.me/TRO_DPR/547,https://t.me/MAYDNR/40309 ,https://t.me/voenkorKotenok/32721 ,https://t.me/rian_ru/153297,https://t.me/akutin_dpr_ru/13184 ,https://t.me/neoficialniybezsonov/8740 ,https://t.me/diza_donbass/828 ,https://t.me/dnr_live/17259 ,https://youtube.com/watch?v=GITpWOYHX1o ,https://t.me/neoficialniybezsonov/8745 ,https://twitter.com/Conflicts/status/1503310851700412416?s=20&t=PTfrEH0p753oMn8-xxkaUA,https://twitter.com/MarQs__/status/1503315625078403074?s=20&t=fD5igdWRSv-2CFsRrIli0Q,https://twitter.com/MarQs__/status/1503316761005146114?s=20&t=fD5igdWRSv-2CFsRrIli0Q,https://twitter.com/20user89/status/1503335584152137730?s=20&t=6ufwwBxLq6MK1ozrydYjlw,https://www.rt.com/russia/551874-donetsk-ballistic-missile-strike/,https://twitter.com/zloy_odessit/status/1503354603722657799,https://twitter.com/urbanhaiti/status/1503380694571134976,https://twitter.com/Peykn1212/status/1503452044065226753/photo/3,https://t.me/zvezdanews/72759","Type of area affected=Residential,Weapon System=Cluster munitions"
"CIV0361","03/14/2022","50.488818","30.467752","Kurenevka, Kyiv","Explosion on street in daylight.","https://twitter.com/SputnikATO/status/1503326760187924483?s=20&t=BEq7Sc7iIl1s1p9qk_OJNQ","Type of area affected=Residential,Weapon System=Unknown"
"CIV0362","03/14/2022","50.540571","30.263744","Irpin","What appears to be a body in a residential area. No information about how they died.","https://twitter.com/Nat_anest/status/1503302440447365122?s=20&t=kB-FoHDLpnub6f2mh6_OtA","Type of area affected=Residential,Weapon System=Unknown"
"CIV0363","03/14/2022","46.95761","32.036305","Mykolaiv","2 x cargo warheads impacted in Mykolaiv zoo. Direction of origin appears to be to the East.","https://twitter.com/olliecarroll/status/1503370738467758081,https://t.co/AlNTjg8RN1","Type of area affected=Undefined,Weapon System=Cluster munitions"
"CIV0373","03/14/2022","50.591922","30.939389","Velyka Dymerka","Three people caught in explosions, reportedly by a bus stop.","","Type of area affected=Undefined,Weapon System=Unknown"
"CIV0374","03/14/2022","49.984777","36.238149","Kharkiv","What appears to be CCTV depicting Multiple Launch Rocket System impacting in central Kharkiv at night.","https://t.me/truexanewsua/33229","Type of area affected=Undefined,Weapon System=HE rocket artillery"
"CIV0375","03/14/2022","50.034454","36.345757","Kharkiv","Fire in what appears to be residential buildings.","https://t.me/truexanewsua/33214","Type of area affected=Residential,Weapon System=Unknown"
"CIV0376","03/14/2022","49.993436","36.22078","Kharkiv","Multiple videos of what appears to be cluster munitions impacting a commercial area.","https://t.me/truexanewsua/33232,https://t.me/truexanewsua/33231","Type of area affected=Commercial,Weapon System=Cluster munitions"
"CIV0423","03/14/2022","47.173635","37.555096","Kalmiuskyi district, Mariupol","Craters indicating strikes on heavy industrial facilities. Craters visible.","https://twitter.com/wammezz/status/1504787102923436049/photo/1","Type of area affected=Industrial,Weapon System=Unknown"
"CIV0896","03/14/2022","50.004422","36.358122","Kharkiv","Local pumping station damaged by strike in Saltivka","https://twitter.com/realidad_int/status/1503376087589408769?s=20&t=VEjBn5xsM3Ig3JS-_1DcSA,https://t.me/truexanewsua/33083,https://t.me/truexanewsua/33205","Type of area affected=Industrial,Weapon System=Unknown"
"CIV0903","03/14/2022","49.984352","36.35136","Kharkiv","Residential buildings damaged by explosion.","https://twitter.com/Fibrik_Oficial/status/1503457947694907403","Type of area affected=Residential,Weapon System=Unknown"
"CIV0372","03/15/2022","49.993108","36.222918","Kharkiv","Munition remnants embedded in pavement","https://twitter.com/marksnoeck/status/1503826296773746694,https://twitter.com/marksnoeck/status/1503826301668450312","Type of area affected=Commercial,Weapon System=Cluster munitions"
"CIV0377","03/15/2022","50.501995","30.449287","Kyiv","Residential building suffered damage. Crater visible, diameter approx 5m.","https://twitter.com/ronzheimer/status/1503618378149339138,https://twitter.com/no_itsmyturn/status/1504033579000553475?s=20&t=gEshnspQAhVnMFxvrHAX-g","Type of area affected=Residential,Weapon System=Unknown"
"CIV0394","03/15/2022","50.457284","30.343357","Svyatoshyns'kyi district, Kyiv","Heavy damage to residential building. Large crater visible.","https://twitter.com/OzKaterji/status/1503676489245638657?s=20&t=GyK20z7Kj_Tn7KyWLK_9qg,https://twitter.com/OzKaterji/status/1503679873038131202?s=20&t=61h0Rkziq-Qzt1y8a_U8xw,https://twitter.com/OzKaterji/status/1503680262168788994?s=20&t=61h0Rkziq-Qzt1y8a_U8xw","Type of area affected=Residential,Weapon System=Unknown"
"CIV0395","03/15/2022","47.13024","37.559636","Mariupol","Large crater in what appears to be a residential area, just behind a supermarket.","https://twitter.com/GirkinGirkin/status/1503676908873175043?s=20&t=j4o6f9R1OjUb2bidbFQZqA,https://www.tiktok.com/@seregaroof/video/7075014797477039365?is_copy_url=1&is_from_webapp=v1","Type of area affected=Residential,Weapon System=Unknown"
"CIV0396","03/16/2022","49.992987","36.222981","Kharkiv","Two cargo warheads for rocket-launched cluster munition impacted in paved road next to the central market.","https://t.me/truexanewsua/33345","Type of area affected=Commercial,Weapon System=Cluster munitions"
"CIV0398","03/16/2022","49.988001","36.340323","Kharkiv","[graphic: body] Explosion in vicinity of person filming from car, next to ice hockey rink. Burning vehicle further to north appears to have a single fatality lying next to it.","https://twitter.com/no_itsmyturn/status/1503995250204942337?s=20&t=YiployIBMtwNtUGKGONQUw,https://t.me/truexanewsua/33635","Type of area affected=Undefined,Weapon System=Unknown"
"CIV0399","03/16/2022","49.982057","36.353785","Kharkiv","[graphic: bodies] Two bodies lying in street. What may be a crater is visible.","https://t.me/truexanewsua/33610","Type of area affected=Residential,Weapon System=Unknown"
"CIV0400","03/16/2022","47.095672","37.547689","Mariupol","Mariupol Drama Theater destroyed in strike. Reports that the theater was being used as a shelter by a large number of civilians.","https://t.me/mariupolnow/2631,https://t.me/mariupolnow/2634,https://twitter.com/Archer83Able/status/1504140481185390600,https://t.me/riamelitopol/46950,https://www.youtube.com/watch?v=Lg3JYn2JukA,https://twitter.com/ckoettl/status/1504182123531485187?s=20&t=WyONmRcsFYoc2y-5LpWZ1g,https://t.me/riamelitopol/46950,https://www.youtube.com/watch?v=Lg3JYn2JukA,https://t.me/riamelitopol/46950,https://www.youtube.com/watch?v=Lg3JYn2JukA,https://t.me/mariupolnow/3265,https://twitter.com/Maxar/status/1505229695931064327,https://twitter.com/michaelh992/status/1508447838795141120?s=20&t=iwvwRvn4JkdY6BGSnwPFYw,https://t.me/swodki/54638,https://t.me/riamelitopol/46950,https://www.youtube.com/watch?v=Lg3JYn2JukA","Type of area affected=Cultural,Weapon System=Unknown"
"CIV0401","03/16/2022","47.103718","37.643805","Mariupol","Mariupol City Palace of Culture destroyed.","https://twitter.com/Nrg8000/status/1504389481348370434?s=20&t=EtHNKWCoIQoKnzZwrnYxYQ,https://t.me/mariupolnow/5162","Type of area affected=Cultural,Weapon System=Unknown"
"CIV0404","03/16/2022","51.518689","31.32626","Chernihiv","10 people reportedly killed while waiting for food. Source 1 is blurred.","https://t.me/suspilnechernihiv/7320","Type of area affected=Residential,Weapon System=Unknown"
"CIV0405","03/16/2022","50.022909","36.339813","Kharkiv","Local market on fire after strike. Report of at least one fatality.","https://twitter.com/no_itsmyturn/status/1504043831716724739,https://t.me/truexanewsua/33669,https://t.me/truexanewsua/33662,https://twitter.com/no_itsmyturn/status/1504043614481100800,https://twitter.com/g_a_u_t_a_m_a/status/1504162101308362761?s=20&t=h4fRsPXty6X_qWrJ9finJA,https://twitter.com/no_itsmyturn/status/1504720994006622209?s=20&t=P9TFu-eGoJVwwy1GLL66NQ","Type of area affected=Commercial,Weapon System=Unknown"
"CIV0406","03/16/2022","48.044642","37.972161","Maviika","Strike in residential area. Crater approx 3m in diameter. Claim states that a Tochka was used.","https://twitter.com/DNR_online_/status/1503977488111788034?s=20&t=iAf5oLmSmhMjJf1mEU3XNA","Type of area affected=Residential,Weapon System=Unknown"
"CIV0407","03/16/2022","49.241217","28.423551","Vinnytsia","TV tower reportedly hit by strike.","https://twitter.com/aldin_ww/status/1504033667101962246?s=20&t=gEshnspQAhVnMFxvrHAX-g","Type of area affected=Industrial,Weapon System=Unknown"
"CIV0897","03/16/2022","49.935723","36.251288","Kharkiv","School destroyed by explosion.","https://twitter.com/ZloyAtoshnik/status/1504013753469263874,https://twitter.com/ignis_fatum/status/1503981420037001218","Type of area affected=School or childcare,Weapon System=Unknown"
"CIV0410","03/17/2022","49.81721","36.054678","Merefa, Kharkiv","What appear to be fragments of a cruise missile, reportedly after a strike which impacted a school.","https://twitter.com/tincazzi/status/1504449807196295168?s=20&t=TmvTFhqAE3YwJ_ggUARKSg,https://twitter.com/tincazzi/status/1504460553569423368?s=20&t=8FlMhcj60WF4uMyYJFwGnQ,https://www.youtube.com/watch?v=Y5CsiWD9rj4","Type of area affected=School or childcare,Weapon System=Cruise missile"
"CIV0413","03/17/2022","50.000756","36.299775","Kharkiv","Report of the opening of an investigation into a market struck on the 17th March. May be incident CIV0405.","https://www.facebook.com/pgo.gov.ua/posts/332485412247632","Type of area affected=Commercial,Weapon System=Unknown"
"CIV0414","03/17/2022","46.806113","32.265175","Kherson","Cargo warhead clearly visible at 00:28.","https://www.youtube.com/watch?v=RbLwK6ZKrEI","Type of area affected=Undefined,Weapon System=Cluster munitions"
"CIV0420","03/17/2022","48.141068","37.891907","Yasinovataya","Damage to kindergarten from strike.","https://twitter.com/DNR_online_/status/1504059981871693829?s=20&t=iAf5oLmSmhMjJf1mEU3XNA,https://twitter.com/DNR_online_/status/1504464681963966465?s=20&t=iAf5oLmSmhMjJf1mEU3XNA","Type of area affected=School or childcare,Weapon System=Unknown"
"CIV0898","03/17/2022","49.976591","36.200946","Kharkiv","School damaged by explosion.","https://t.me/truexanewsua/33881","Type of area affected=School or childcare,Weapon System=Unknown"
"CIV0899","03/17/2022","49.81705","36.054874","Kharkiv","School and community centre destroyed by explosion.","https://t.me/truexanewsua/33862,https://t.me/truexanewsua/33892,https://t.me/truexanewsua/33876","Type of area affected=School or childcare,Weapon System=Unknown"
"CIV0417","03/18/2022","50.509804","30.432136","Podilskyi, Kyiv","Heavy damage in what appears to be a residential area. Large crater. Reports of multiple injuries and one fatality.","https://twitter.com/michaelh992/status/1504720686039851009?s=20&t=B0KQtVbiAtUyNidZX-jVRg,https://twitter.com/no_itsmyturn/status/1504719800722939908?s=20&t=P9TFu-eGoJVwwy1GLL66NQ,https://twitter.com/michaelh992/status/1504770968165748742?s=20&t=lKH7I9ZpLA6FqcFiSuaLBA,https://twitter.com/michaelh992/status/1504771028475695108?s=20&t=lKH7I9ZpLA6FqcFiSuaLBA,https://twitter.com/SESU_UA/status/1504720926792900614?s=20&t=bptRa-JsIWGdKaqp7z_UfQ","Type of area affected=Residential,Weapon System=Unknown"
"CIV0422","03/18/2022","49.989901","36.25703","Kharkiv","Damage to a residential building. A ""higher educational institution"" was also reported to be damaged. The National Academy of the National Guard is immediately to the east of this location.","https://t.me/kharkiv_1654/31204","Type of area affected=Residential,Weapon System=Unknown"
"CIV0428","03/18/2022","47.104517","37.589405","Mariupol","Strikes on industrial area.","https://twitter.com/anadoluagency/status/1504829361844797454?s=20&t=vCENPIIlOhKWCFzRVflYow","Type of area affected=Industrial,Weapon System=Unknown"
"CIV0527","03/18/2022","47.945581","37.69741","Kirov, Donetsk","Hospitals reportedly damaged by shelling. Craters visible.","https://t.me/DNR_SCKK/6922","Type of area affected=Healthcare,Weapon System=Unknown"
"CIV0528","03/18/2022","47.949682","37.692484","Donetsk","[graphic: blurred bodies]. What appear to be multiple bodies and damage to an area, reportedly after a strike.","https://t.me/DNR_SCKK/6911","Type of area affected=Residential,Weapon System=Unknown"
"CIV0901","03/18/2022","49.988041","36.245537","Kharkiv","Homes destroyed by explosion.","https://t.me/truexanewsua/34367","Type of area affected=Residential,Weapon System=Unknown"
"CIV0902","03/18/2022","50.528684","30.365467","Kyiv","Explosion in residential area damages buildings.","https://t.me/truexanewsua/34420","Type of area affected=Residential,Weapon System=Unknown"
"CIV0432","03/19/2022","50.461255","29.811025","Makarov, Kyiv","Reports of deaths and injuries caused by a strike on a residential and administrative area.","https://twitter.com/Osinttechnical/status/1504959462746038274,https://t.me/kievreal1/14051","Type of area affected=Residential,Weapon System=Unknown"
"CIV0436","03/19/2022","51.469385","31.25735","Chernihiv","Large fire in Chernihiv industrial district reportedly after shelling.","https://twitter.com/wammezz/status/1505517360567959552?s=20&t=buzbIxDYt1cfJtXv7VJ2Pw,https://twitter.com/ChaudharyParvez/status/1505236369433632782?s=20&t=LLQs08nkWG5Rj-ArPTpz4g","Type of area affected=Industrial,Weapon System=Unknown"
"CIV0622","03/19/2022","47.151459","37.73134","Mariupol","TOS-1A thermobaric launch.","https://t.me/nm_dnr/7112,https://t.me/milinfolive/79161,https://twitter.com/michaelh992/status/1505440504292458496","Type of area affected=Undefined,Weapon System=Thermobaric munition"
"CIV1824","03/19/2022","50.621261","30.442943","","[Sensitive Media: Child's body pulled from rubble] Child killed following strikes on what appears to be a residential area.","HIDDEN","Type of area affected=Residential,Weapon System=Unknown"
"CIV0439","03/20/2022","47.108852","37.560537","Mariupol","School No. 36 heavily damaged.","https://t.me/mariupolnow/3068?single","Type of area affected=School or childcare,Weapon System=Unknown"
"CIV0440","03/20/2022","47.103769","37.553122","Mariupol","School no. 66 heavily damaged.","https://t.me/mariupolnow/3066","Type of area affected=School or childcare,Weapon System=Unknown"
"CIV0441","03/20/2022","47.11691","37.524025","Mariupol","Widespread destruction in residential area.","https://twitter.com/TWMCLtd/status/1505593463953317896","Type of area affected=Residential,Weapon System=Unknown"
"CIV0442","03/20/2022","50.502264","30.417336","Kyiv","Very large detonation in Kyiv, appearing to hit the Retroville shopping mall. CCTV videos show small flash before larger detonation. Source 19 shows what appear to be green-painted trucks under this building. Other open sources …","https://twitter.com/MarQs__/status/1505661285282811908?s=20&t=QdviWL15GkteDDvnFh7j3g,https://t.me/kievreal1/14406,https://t.me/kievreal1/14408,https://twitter.com/ukrpravda_news/status/1505657381316927494?s=20&t=QdviWL15GkteDDvnFh7j3g,https://twitter.com/SMarr311/status/1505651869783408643?s=20&t=bM_aXrx6PXC_YZGMM1XrhA,https://t.me/kievreal1/14411,https://twitter.com/OAlexanderDK/status/1505676097136082948?s=20&t=QdviWL15GkteDDvnFh7j3g,https://twitter.com/Osinttechnical/status/1505666793834270721?s=20&t=bM_aXrx6PXC_YZGMM1XrhA,https://t.me/kievreal1/14413,https://t.me/kievreal1/14414,https://t.me/kievreal1/14417,https://t.me/kievreal1/14420,https://t.me/kievreal1/14422,https://t.me/kievreal1/14431,https://t.me/kievreal1/14433,https://twitter.com/TpyxaNews/status/1505678525612888071?s=20&t=bM_aXrx6PXC_YZGMM1XrhA,https://t.me/kievreal1/14421,https://twitter.com/GianlucaMezzo/status/1505805720188506112,https://twitter.com/mudzhyri/status/1505836169736892418,https://twitter.com/Klitschko/status/1505843798219231236?s=20&t=rurX4HYfa-KCOT-JBBzT7w,https://twitter.com/olliecarroll/status/1505837451281113090?s=20&t=rurX4HYfa-KCOT-JBBzT7w,https://twitter.com/aldin_ww/status/1505857934642884611?s=20&t=rurX4HYfa-KCOT-JBBzT7w,https://t.me/kievreal1/14422","Type of area affected=Commercial,Weapon System=Unknown"
"CIV0465","03/20/2022","49.864835","36.1404","Kharkiv","Rocket motor and a submunition, which appears to be either 9N210 or 9N235 removed from residential home.","https://www.facebook.com/ICHDRR/posts/435822061674482","Type of area affected=Residential,Weapon System=Cluster munitions"
"CIV0525","03/20/2022","48.059573","37.776128","Kyiv region, Donetsk","Damage to residential buildings. Crater visible.","https://t.me/DNR_SCKK/6990","Type of area affected=Residential,Weapon System=Unknown"
"CIV0904","03/20/2022","49.983428","36.327175","Kharkiv","Missile or artillery strike on a residential area captured on dashcam footage.","https://twitter.com/no_itsmyturn/status/1505488383736532993","Type of area affected=Residential,Weapon System=Unknown"
"CIV0443","03/21/2022","46.640093","32.614286","Kherson","Individuals shot and injured in Kherson, reportedly at a peaceful protest.","https://t.me/hueviyherson/14792,https://t.me/hueviyherson/14783,https://t.me/hueviyherson/14779","Type of area affected=Administrative,Weapon System=Small arms"
"CIV0444","03/21/2022","50.861709","34.906519","Sumy","Ammonia industrial facility damaged by strike.","https://twitter.com/nexta_tv/status/1505790655578218497?s=20&t=o_0riHUsO0LEPeKBddbUdQ,https://twitter.com/nexta_tv/status/1505799805888610304?s=20&t=o_0riHUsO0LEPeKBddbUdQ,https://twitter.com/Forbes/status/1505792718806700038?s=20&t=o_0riHUsO0LEPeKBddbUdQ","Type of area affected=Industrial,Weapon System=Unknown"
"CIV0445","03/21/2022","46.973135","32.017079","Mykolaiv","Mental Health Center reportedly hit in a strike. Large crater, approx 5m diameter, visible.","https://t.me/novostiniko1/12112","Type of area affected=Healthcare,Weapon System=Unknown"
"CIV0447","03/21/2022","47.119206","37.518714","Mariupol","Crater in the ground in Mariupol","https://t.me/mariupolnow/3183","Type of area affected=Residential,Weapon System=Unknown"
"CIV0472","03/21/2022","47.101232","37.63452","Mariupol","Multiple residential blocks on fire, reportedly after strikes.","https://twitter.com/SputnikATO/status/1505857621823217667?s=20&t=rurX4HYfa-KCOT-JBBzT7w","Type of area affected=Residential,Weapon System=Unknown"
"CIV0478","03/21/2022","47.941011","37.503053","21/03/2022","Stock footage of widespread damage to residential and commercial buildings in different parts of the city.","HIDDEN","Type of area affected=Residential,Weapon System=Unknown"
